{
"type": "FeatureCollection",
"name": "seattle_food_availability",
"crs": { "type": "name", "properties": { "name": "urn:ogc:def:crs:OGC:1.3:CRS84" } },
"features": [
{ "type": "Feature", "properties": { "name": "UPS", "naics_code": 492210.0, "naics_desc": "LOCAL MESSENGERS AND LOCAL DELIVERY", "lon": -122.32766377482902, "lat": 47.564077300032132 }, "geometry": { "type": "Point", "coordinates": [ -122.32766377482902, 47.564077300032132 ] } },
{ "type": "Feature", "properties": { "name": "URBAN FRESH", "naics_code": 722330.0, "naics_desc": "MOBILE FOOD SERVICES", "lon": -122.38064776514828, "lat": 47.655618358369594 }, "geometry": { "type": "Point", "coordinates": [ -122.380647765148282, 47.655618358369594 ] } },
{ "type": "Feature", "properties": { "name": "BIRGIT SAALFELD", "naics_code": 541613.0, "naics_desc": "MARKETING CONSULTING SERVICES ", "lon": -122.39476569751692, "lat": 47.658033582313713 }, "geometry": { "type": "Point", "coordinates": [ -122.394765697516917, 47.658033582313713 ] } },
{ "type": "Feature", "properties": { "name": "AURORA SUPER SAVER FOODS", "naics_code": 445110.0, "naics_desc": "SUPERMARKETS AND OTHER GROCERY RETAILERS (EXCEPT CONVENIENCE RETAILERS) ", "lon": -122.34252039164519, "lat": 47.702681429191827 }, "geometry": { "type": "Point", "coordinates": [ -122.342520391645195, 47.702681429191827 ] } },
{ "type": "Feature", "properties": { "name": "SAFEWAY STORE  219", "naics_code": 445110.0, "naics_desc": "SUPERMARKETS AND OTHER GROCERY RETAILERS (EXCEPT CONVENIENCE RETAILERS) ", "lon": -122.28309217439789, "lat": 47.537479719333589 }, "geometry": { "type": "Point", "coordinates": [ -122.283092174397893, 47.537479719333589 ] } },
{ "type": "Feature", "properties": { "name": "SAFEWAY STORE  1586", "naics_code": 445110.0, "naics_desc": "SUPERMARKETS AND OTHER GROCERY RETAILERS (EXCEPT CONVENIENCE RETAILERS) ", "lon": -122.31201779548526, "lat": 47.718645174933002 }, "geometry": { "type": "Point", "coordinates": [ -122.312017795485261, 47.718645174933002 ] } },
{ "type": "Feature", "properties": { "name": "SAFEWAY STORE 3275", "naics_code": 445110.0, "naics_desc": "SUPERMARKETS AND OTHER GROCERY RETAILERS (EXCEPT CONVENIENCE RETAILERS) ", "lon": -122.35607442512814, "lat": 47.637766333109788 }, "geometry": { "type": "Point", "coordinates": [ -122.356074425128142, 47.637766333109788 ] } },
{ "type": "Feature", "properties": { "name": "SAFEWAY STORE  1993", "naics_code": 445110.0, "naics_desc": "SUPERMARKETS AND OTHER GROCERY RETAILERS (EXCEPT CONVENIENCE RETAILERS) ", "lon": -122.30365888096223, "lat": 47.618097562362216 }, "geometry": { "type": "Point", "coordinates": [ -122.303658880962232, 47.618097562362216 ] } },
{ "type": "Feature", "properties": { "name": "SAFEWAY STORES", "naics_code": 457110.0, "naics_desc": "GASOLINE STATIONS WITH CONVENIENCE STORES ", "lon": -122.36670534201748, "lat": 47.516684750923133 }, "geometry": { "type": "Point", "coordinates": [ -122.366705342017482, 47.516684750923133 ] } },
{ "type": "Feature", "properties": { "name": "ALAA", "naics_code": 492210.0, "naics_desc": "LOCAL MESSENGERS AND LOCAL DELIVERY", "lon": -122.37382256699615, "lat": 47.520597230566153 }, "geometry": { "type": "Point", "coordinates": [ -122.373822566996154, 47.520597230566153 ] } },
{ "type": "Feature", "properties": { "name": "SALMON SERVICE CENTERS INC", "naics_code": 457110.0, "naics_desc": "GASOLINE STATIONS WITH CONVENIENCE STORES ", "lon": -122.31312029424616, "lat": 47.719750698161775 }, "geometry": { "type": "Point", "coordinates": [ -122.313120294246161, 47.719750698161775 ] } },
{ "type": "Feature", "properties": { "name": "EL CAMION", "naics_code": 722330.0, "naics_desc": "MOBILE FOOD SERVICES", "lon": -122.34445261901629, "lat": 47.715033430316069 }, "geometry": { "type": "Point", "coordinates": [ -122.344452619016295, 47.715033430316069 ] } },
{ "type": "Feature", "properties": { "name": "ELWAY RESEARCH", "naics_code": 541910.0, "naics_desc": "MARKETING RESEARCH AND PUBLIC OPINION POLLING", "lon": -122.35668572387227, "lat": 47.680586602946768 }, "geometry": { "type": "Point", "coordinates": [ -122.356685723872275, 47.680586602946768 ] } },
{ "type": "Feature", "properties": { "name": "LAYERS GREEN LAKE", "naics_code": 722330.0, "naics_desc": "MOBILE FOOD SERVICES", "lon": -122.33710050214246, "lat": 47.685830541318296 }, "geometry": { "type": "Point", "coordinates": [ -122.337100502142462, 47.685830541318296 ] } },
{ "type": "Feature", "properties": { "name": "COMMUNITY GROCERY & DELI", "naics_code": 445131.0, "naics_desc": "CONVENIENCE RETAILERS ", "lon": -122.33346196229967, "lat": 47.607603413605808 }, "geometry": { "type": "Point", "coordinates": [ -122.333461962299666, 47.607603413605808 ] } },
{ "type": "Feature", "properties": { "name": "BEANFISH", "naics_code": 722330.0, "naics_desc": "MOBILE FOOD SERVICES", "lon": -122.32701815323382, "lat": 47.597323039754784 }, "geometry": { "type": "Point", "coordinates": [ -122.327018153233823, 47.597323039754784 ] } },
{ "type": "Feature", "properties": { "name": "BLUE RAVEN SYNERGIES", "naics_code": 541613.0, "naics_desc": "MARKETING CONSULTING SERVICES ", "lon": -122.35134066756123, "lat": 47.689323522551263 }, "geometry": { "type": "Point", "coordinates": [ -122.351340667561232, 47.689323522551263 ] } },
{ "type": "Feature", "properties": { "name": "STARBUCKS COFFEE   3202", "naics_code": 445298.0, "naics_desc": "ALL OTHER SPECIALTY FOOD RETAILERS ", "lon": -122.38750834161958, "lat": 47.544564159587829 }, "geometry": { "type": "Point", "coordinates": [ -122.387508341619579, 47.544564159587829 ] } },
{ "type": "Feature", "properties": { "name": "SAVOR EDUCATION LLC", "naics_code": 722310.0, "naics_desc": "FOOD SERVICE CONTRACTORS", "lon": -122.41058478377187, "lat": 47.642963954780605 }, "geometry": { "type": "Point", "coordinates": [ -122.410584783771867, 47.642963954780605 ] } },
{ "type": "Feature", "properties": { "name": "DONT MIND IF I DO FOOD CO", "naics_code": 722330.0, "naics_desc": "MOBILE FOOD SERVICES", "lon": -122.40588570922151, "lat": 47.577232563671366 }, "geometry": { "type": "Point", "coordinates": [ -122.405885709221508, 47.577232563671366 ] } },
{ "type": "Feature", "properties": { "name": "SAYWEEE.COM", "naics_code": 445110.0, "naics_desc": "SUPERMARKETS AND OTHER GROCERY RETAILERS (EXCEPT CONVENIENCE RETAILERS) ", "lon": -122.3255436614773, "lat": 47.584462110590657 }, "geometry": { "type": "Point", "coordinates": [ -122.325543661477298, 47.584462110590657 ] } },
{ "type": "Feature", "properties": { "name": "RISE UP BAKERS", "naics_code": 722330.0, "naics_desc": "MOBILE FOOD SERVICES", "lon": -122.28583794766365, "lat": 47.690392211168962 }, "geometry": { "type": "Point", "coordinates": [ -122.285837947663651, 47.690392211168962 ] } },
{ "type": "Feature", "properties": { "name": "SHILSHOLE BAY FUEL DOCK LLC", "naics_code": 457110.0, "naics_desc": "GASOLINE STATIONS WITH CONVENIENCE STORES ", "lon": -122.40580091889612, "lat": 47.680024551220257 }, "geometry": { "type": "Point", "coordinates": [ -122.405800918896119, 47.680024551220257 ] } },
{ "type": "Feature", "properties": { "name": "ACME FOOD SALES INC", "naics_code": 424490.0, "naics_desc": "OTHER GROCERY AND RELATED PRODUCTS MERCHANT WHOLESALERS ", "lon": -122.3276317551915, "lat": 47.552389223470762 }, "geometry": { "type": "Point", "coordinates": [ -122.327631755191504, 47.552389223470762 ] } },
{ "type": "Feature", "properties": { "name": "NORTHGATE SHELL FOOD MART", "naics_code": 445110.0, "naics_desc": "SUPERMARKETS AND OTHER GROCERY RETAILERS (EXCEPT CONVENIENCE RETAILERS) ", "lon": -122.3344219001484, "lat": 47.708330871407711 }, "geometry": { "type": "Point", "coordinates": [ -122.334421900148399, 47.708330871407711 ] } },
{ "type": "Feature", "properties": { "name": "AGGREGATE LLC", "naics_code": 541613.0, "naics_desc": "MARKETING CONSULTING SERVICES ", "lon": -122.36071156943815, "lat": 47.632512037982778 }, "geometry": { "type": "Point", "coordinates": [ -122.360711569438152, 47.632512037982778 ] } },
{ "type": "Feature", "properties": { "name": "SNOW DAY", "naics_code": 722330.0, "naics_desc": "MOBILE FOOD SERVICES", "lon": -122.31166377688803, "lat": 47.616315564387236 }, "geometry": { "type": "Point", "coordinates": [ -122.311663776888025, 47.616315564387236 ] } },
{ "type": "Feature", "properties": { "name": "NAZARETH MARKET", "naics_code": 445110.0, "naics_desc": "SUPERMARKETS AND OTHER GROCERY RETAILERS (EXCEPT CONVENIENCE RETAILERS) ", "lon": -122.28852275110263, "lat": 47.552893507911882 }, "geometry": { "type": "Point", "coordinates": [ -122.288522751102633, 47.552893507911882 ] } },
{ "type": "Feature", "properties": { "name": "BAKKALCH MINI MARKET", "naics_code": 445110.0, "naics_desc": "SUPERMARKETS AND OTHER GROCERY RETAILERS (EXCEPT CONVENIENCE RETAILERS) ", "lon": -122.27034702013853, "lat": 47.531268646755784 }, "geometry": { "type": "Point", "coordinates": [ -122.27034702013853, 47.531268646755784 ] } },
{ "type": "Feature", "properties": { "name": "BALLANTYNE NUTRITION SERVICES PLLC", "naics_code": 541613.0, "naics_desc": "MARKETING CONSULTING SERVICES ", "lon": -122.30565430734238, "lat": 47.554312708220898 }, "geometry": { "type": "Point", "coordinates": [ -122.30565430734238, 47.554312708220898 ] } },
{ "type": "Feature", "properties": { "name": "LYONS GROCERY", "naics_code": 445131.0, "naics_desc": "CONVENIENCE RETAILERS ", "lon": -122.34322283010924, "lat": 47.637792509514085 }, "geometry": { "type": "Point", "coordinates": [ -122.343222830109241, 47.637792509514085 ] } },
{ "type": "Feature", "properties": { "name": "GO MOBILE", "naics_code": 541613.0, "naics_desc": "MARKETING CONSULTING SERVICES ", "lon": -122.28432803859167, "lat": 47.546615684350897 }, "geometry": { "type": "Point", "coordinates": [ -122.284328038591667, 47.546615684350897 ] } },
{ "type": "Feature", "properties": { "name": "MCP MEDIA SERVICES", "naics_code": 541613.0, "naics_desc": "MARKETING CONSULTING SERVICES ", "lon": -122.35703684875359, "lat": 47.632033064938447 }, "geometry": { "type": "Point", "coordinates": [ -122.357036848753594, 47.632033064938447 ] } },
{ "type": "Feature", "properties": { "name": "BLUE KILY LLC", "naics_code": 541613.0, "naics_desc": "MARKETING CONSULTING SERVICES ", "lon": -122.3044228546869, "lat": 47.631249076401524 }, "geometry": { "type": "Point", "coordinates": [ -122.304422854686905, 47.631249076401524 ] } },
{ "type": "Feature", "properties": { "name": "BON APPETIT  MANAGEMENT CO", "naics_code": 722310.0, "naics_desc": "FOOD SERVICE CONTRACTORS", "lon": -122.34402982347993, "lat": 47.611564347025315 }, "geometry": { "type": "Point", "coordinates": [ -122.344029823479929, 47.611564347025315 ] } },
{ "type": "Feature", "properties": { "name": "PARCEL BUTLER LLC", "naics_code": 492210.0, "naics_desc": "LOCAL MESSENGERS AND LOCAL DELIVERY", "lon": -122.33065250181473, "lat": 47.525499089202029 }, "geometry": { "type": "Point", "coordinates": [ -122.330652501814725, 47.525499089202029 ] } },
{ "type": "Feature", "properties": { "name": "BLUEPRINT BRAND STRATEGY", "naics_code": 541613.0, "naics_desc": "MARKETING CONSULTING SERVICES ", "lon": -122.35529835666738, "lat": 47.639553251563036 }, "geometry": { "type": "Point", "coordinates": [ -122.355298356667376, 47.639553251563036 ] } },
{ "type": "Feature", "properties": { "name": "PASTRY BOY", "naics_code": 722310.0, "naics_desc": "FOOD SERVICE CONTRACTORS", "lon": -122.35578353353542, "lat": 47.627921076754212 }, "geometry": { "type": "Point", "coordinates": [ -122.355783533535416, 47.627921076754212 ] } },
{ "type": "Feature", "properties": { "name": "PATTILLO & ASSOCIATES", "naics_code": 541613.0, "naics_desc": "MARKETING CONSULTING SERVICES ", "lon": -122.28850482766039, "lat": 47.713896596379698 }, "geometry": { "type": "Point", "coordinates": [ -122.28850482766039, 47.713896596379698 ] } },
{ "type": "Feature", "properties": { "name": "TAQUERIA TEQUILA", "naics_code": 445298.0, "naics_desc": "ALL OTHER SPECIALTY FOOD RETAILERS ", "lon": -122.30013622333229, "lat": 47.710032641488013 }, "geometry": { "type": "Point", "coordinates": [ -122.300136223332288, 47.710032641488013 ] } },
{ "type": "Feature", "properties": { "name": "IM SEAFOOD TRADING INC", "naics_code": 424460.0, "naics_desc": "FISH AND SEAFOOD MERCHANT WHOLESALERS ", "lon": -122.29743304688084, "lat": 47.668792406744586 }, "geometry": { "type": "Point", "coordinates": [ -122.29743304688084, 47.668792406744586 ] } },
{ "type": "Feature", "properties": { "name": "INSOMNIA COOKIES", "naics_code": 445291.0, "naics_desc": "BAKED GOODS RETAILERS ", "lon": -122.32120881387371, "lat": 47.614582256151358 }, "geometry": { "type": "Point", "coordinates": [ -122.32120881387371, 47.614582256151358 ] } },
{ "type": "Feature", "properties": { "name": "THANH PHAT TAI MARKET", "naics_code": 445131.0, "naics_desc": "CONVENIENCE RETAILERS ", "lon": -122.28181560825534, "lat": 47.537665254837925 }, "geometry": { "type": "Point", "coordinates": [ -122.281815608255343, 47.537665254837925 ] } },
{ "type": "Feature", "properties": { "name": "PHUOC HUNG MARKET", "naics_code": 445110.0, "naics_desc": "SUPERMARKETS AND OTHER GROCERY RETAILERS (EXCEPT CONVENIENCE RETAILERS) ", "lon": -122.28100809031724, "lat": 47.537779131201262 }, "geometry": { "type": "Point", "coordinates": [ -122.281008090317243, 47.537779131201262 ] } },
{ "type": "Feature", "properties": { "name": "PIES BY BARBARA", "naics_code": 722310.0, "naics_desc": "FOOD SERVICE CONTRACTORS", "lon": -122.28571900866027, "lat": 47.616127304420814 }, "geometry": { "type": "Point", "coordinates": [ -122.285719008660266, 47.616127304420814 ] } },
{ "type": "Feature", "properties": { "name": "PIKE PLACE FISH MARKET INC", "naics_code": 445250.0, "naics_desc": "FISH AND SEAFOOD RETAILERS ", "lon": -122.34053804221304, "lat": 47.608960268593215 }, "geometry": { "type": "Point", "coordinates": [ -122.340538042213041, 47.608960268593215 ] } },
{ "type": "Feature", "properties": { "name": "THE PAPER CRANE FACTORY", "naics_code": 541613.0, "naics_desc": "MARKETING CONSULTING SERVICES ", "lon": -122.32628388318641, "lat": 47.644284793800267 }, "geometry": { "type": "Point", "coordinates": [ -122.326283883186406, 47.644284793800267 ] } },
{ "type": "Feature", "properties": { "name": "THE SNEAKY CORPORATION", "naics_code": 311999.0, "naics_desc": "ALL OTHER MISCELLANEOUS FOOD MANUFACTURING ", "lon": -122.33548367203876, "lat": 47.69395059674217 }, "geometry": { "type": "Point", "coordinates": [ -122.335483672038762, 47.69395059674217 ] } },
{ "type": "Feature", "properties": { "name": "THE MATCHA GIRLS", "naics_code": 722330.0, "naics_desc": "MOBILE FOOD SERVICES", "lon": -122.37510247114011, "lat": 47.642360553377038 }, "geometry": { "type": "Point", "coordinates": [ -122.37510247114011, 47.642360553377038 ] } },
{ "type": "Feature", "properties": { "name": "MAINSTAY DISTRIBUTION", "naics_code": 445110.0, "naics_desc": "SUPERMARKETS AND OTHER GROCERY RETAILERS (EXCEPT CONVENIENCE RETAILERS) ", "lon": -122.36422940261161, "lat": 47.676172251541523 }, "geometry": { "type": "Point", "coordinates": [ -122.364229402611613, 47.676172251541523 ] } },
{ "type": "Feature", "properties": { "name": "OPEN ON MOST DAYS", "naics_code": 722330.0, "naics_desc": "MOBILE FOOD SERVICES", "lon": -122.37341739888308, "lat": 47.582015544032487 }, "geometry": { "type": "Point", "coordinates": [ -122.373417398883078, 47.582015544032487 ] } },
{ "type": "Feature", "properties": { "name": "DELITE BAKERY SEATTLE", "naics_code": 445291.0, "naics_desc": "BAKED GOODS RETAILERS ", "lon": -122.31366341256434, "lat": 47.579306431865987 }, "geometry": { "type": "Point", "coordinates": [ -122.313663412564338, 47.579306431865987 ] } },
{ "type": "Feature", "properties": { "name": "DELPHINIUM DELICATESSEN AND GOODS LLC", "naics_code": 445298.0, "naics_desc": "ALL OTHER SPECIALTY FOOD RETAILERS ", "lon": -122.3863761342985, "lat": 47.569131768633561 }, "geometry": { "type": "Point", "coordinates": [ -122.386376134298501, 47.569131768633561 ] } },
{ "type": "Feature", "properties": { "name": "DELRIDGE WAY SHELL", "naics_code": 445131.0, "naics_desc": "CONVENIENCE RETAILERS ", "lon": -122.36064845483654, "lat": 47.538271212959685 }, "geometry": { "type": "Point", "coordinates": [ -122.360648454836536, 47.538271212959685 ] } },
{ "type": "Feature", "properties": { "name": "SWEET MICKEYS", "naics_code": 445292.0, "naics_desc": "CONFECTIONERY AND NUT RETAILERS ", "lon": -122.38416661730496, "lat": 47.667390539408245 }, "geometry": { "type": "Point", "coordinates": [ -122.384166617304956, 47.667390539408245 ] } },
{ "type": "Feature", "properties": { "name": "JET CITY BEIGNET", "naics_code": 722330.0, "naics_desc": "MOBILE FOOD SERVICES", "lon": -122.35368774567873, "lat": 47.531070658296109 }, "geometry": { "type": "Point", "coordinates": [ -122.353687745678727, 47.531070658296109 ] } },
{ "type": "Feature", "properties": { "name": "FREMONT SHELL", "naics_code": 457110.0, "naics_desc": "GASOLINE STATIONS WITH CONVENIENCE STORES ", "lon": -122.35045753050819, "lat": 47.66243164135944 }, "geometry": { "type": "Point", "coordinates": [ -122.350457530508194, 47.66243164135944 ] } },
{ "type": "Feature", "properties": { "name": "WALLYS GROCERY", "naics_code": 445131.0, "naics_desc": "CONVENIENCE RETAILERS ", "lon": -122.34432152637591, "lat": 47.612839949309063 }, "geometry": { "type": "Point", "coordinates": [ -122.344321526375907, 47.612839949309063 ] } },
{ "type": "Feature", "properties": { "name": "JIMS MARKET & DELI", "naics_code": 457110.0, "naics_desc": "GASOLINE STATIONS WITH CONVENIENCE STORES ", "lon": -122.280410977473, "lat": 47.534553356643407 }, "geometry": { "type": "Point", "coordinates": [ -122.280410977472997, 47.534553356643407 ] } },
{ "type": "Feature", "properties": { "name": "SKB CONSULTING SERVICES", "naics_code": 541613.0, "naics_desc": "MARKETING CONSULTING SERVICES ", "lon": -122.38341124474394, "lat": 47.512433457210818 }, "geometry": { "type": "Point", "coordinates": [ -122.38341124474394, 47.512433457210818 ] } },
{ "type": "Feature", "properties": { "name": "SKIPPER'S PRETZELS", "naics_code": 722330.0, "naics_desc": "MOBILE FOOD SERVICES", "lon": -122.29403069045507, "lat": 47.587201802664673 }, "geometry": { "type": "Point", "coordinates": [ -122.294030690455074, 47.587201802664673 ] } },
{ "type": "Feature", "properties": { "name": "DA VINCI GOURMET", "naics_code": 424490.0, "naics_desc": "OTHER GROCERY AND RELATED PRODUCTS MERCHANT WHOLESALERS ", "lon": -122.33347103481911, "lat": 47.537666561004073 }, "geometry": { "type": "Point", "coordinates": [ -122.333471034819112, 47.537666561004073 ] } },
{ "type": "Feature", "properties": { "name": "LAKE CITY WAY SHELL", "naics_code": 457110.0, "naics_desc": "GASOLINE STATIONS WITH CONVENIENCE STORES ", "lon": -122.29345931793999, "lat": 47.723503954637096 }, "geometry": { "type": "Point", "coordinates": [ -122.293459317939991, 47.723503954637096 ] } },
{ "type": "Feature", "properties": { "name": "KHOBO", "naics_code": 311423.0, "naics_desc": "DRIED AND DEHYDRATED FOOD MANUFACTURING ", "lon": -122.28587667235234, "lat": 47.560104236421687 }, "geometry": { "type": "Point", "coordinates": [ -122.285876672352344, 47.560104236421687 ] } },
{ "type": "Feature", "properties": { "name": "TT MINI MART", "naics_code": 445131.0, "naics_desc": "CONVENIENCE RETAILERS ", "lon": -122.27833336925579, "lat": 47.551810284765899 }, "geometry": { "type": "Point", "coordinates": [ -122.27833336925579, 47.551810284765899 ] } },
{ "type": "Feature", "properties": { "name": "SALT & STRAW", "naics_code": 445298.0, "naics_desc": "ALL OTHER SPECIALTY FOOD RETAILERS ", "lon": -122.33979687976351, "lat": 47.60913563370756 }, "geometry": { "type": "Point", "coordinates": [ -122.339796879763512, 47.60913563370756 ] } },
{ "type": "Feature", "properties": { "name": "MARKET SPICE", "naics_code": 445298.0, "naics_desc": "ALL OTHER SPECIALTY FOOD RETAILERS ", "lon": -122.34082940146831, "lat": 47.608333224148133 }, "geometry": { "type": "Point", "coordinates": [ -122.340829401468312, 47.608333224148133 ] } },
{ "type": "Feature", "properties": { "name": "LA ESPERANZA MERCADO Y CARNICERIA", "naics_code": 445110.0, "naics_desc": "SUPERMARKETS AND OTHER GROCERY RETAILERS (EXCEPT CONVENIENCE RETAILERS) ", "lon": -122.3130909067623, "lat": 47.580825216125049 }, "geometry": { "type": "Point", "coordinates": [ -122.313090906762298, 47.580825216125049 ] } },
{ "type": "Feature", "properties": { "name": "GAMO", "naics_code": 445291.0, "naics_desc": "BAKED GOODS RETAILERS ", "lon": -122.2347870671634, "lat": 47.496142612404654 }, "geometry": { "type": "Point", "coordinates": [ -122.234787067163396, 47.496142612404654 ] } },
{ "type": "Feature", "properties": { "name": "SOSIOS FRUIT & PRODUCE INC", "naics_code": 445230.0, "naics_desc": "FRUIT AND VEGETABLE RETAILERS ", "lon": -122.34120332739376, "lat": 47.608813582270137 }, "geometry": { "type": "Point", "coordinates": [ -122.341203327393757, 47.608813582270137 ] } },
{ "type": "Feature", "properties": { "name": "UWAJIMAYA INC", "naics_code": 445110.0, "naics_desc": "SUPERMARKETS AND OTHER GROCERY RETAILERS (EXCEPT CONVENIENCE RETAILERS) ", "lon": -122.32688889982249, "lat": 47.596990048762365 }, "geometry": { "type": "Point", "coordinates": [ -122.326888899822492, 47.596990048762365 ] } },
{ "type": "Feature", "properties": { "name": "VENDING VARIETY LLC", "naics_code": 445132.0, "naics_desc": "VENDING MACHINE OPERATORS ", "lon": -122.26022742525946, "lat": 47.517507266732615 }, "geometry": { "type": "Point", "coordinates": [ -122.260227425259458, 47.517507266732615 ] } },
{ "type": "Feature", "properties": { "name": "TEAM JUPITER", "naics_code": 541613.0, "naics_desc": "MARKETING CONSULTING SERVICES ", "lon": -122.39923395501988, "lat": 47.563840853614252 }, "geometry": { "type": "Point", "coordinates": [ -122.399233955019881, 47.563840853614252 ] } },
{ "type": "Feature", "properties": { "name": "LYNN BENEDICT ART AND DESIGNS", "naics_code": 445230.0, "naics_desc": "FRUIT AND VEGETABLE RETAILERS ", "lon": -122.3623133800137, "lat": 47.631860037300086 }, "geometry": { "type": "Point", "coordinates": [ -122.362313380013703, 47.631860037300086 ] } },
{ "type": "Feature", "properties": { "name": "BEST OF BOTH WORLDS", "naics_code": 722330.0, "naics_desc": "MOBILE FOOD SERVICES", "lon": -122.32441257296657, "lat": 47.570135105317902 }, "geometry": { "type": "Point", "coordinates": [ -122.324412572966565, 47.570135105317902 ] } },
{ "type": "Feature", "properties": { "name": "EDITED RUTH LLC", "naics_code": 541613.0, "naics_desc": "MARKETING CONSULTING SERVICES ", "lon": -122.35854103653705, "lat": 47.685299741835081 }, "geometry": { "type": "Point", "coordinates": [ -122.358541036537048, 47.685299741835081 ] } },
{ "type": "Feature", "properties": { "name": "TEA MOSS SHOP", "naics_code": 311710.0, "naics_desc": "SEAFOOD PRODUCT PREPARATION AND PACKAGING", "lon": -122.29657228194053, "lat": 47.612730987787636 }, "geometry": { "type": "Point", "coordinates": [ -122.296572281940527, 47.612730987787636 ] } },
{ "type": "Feature", "properties": { "name": "SEATTLE BEER COLLECTIVE LLC", "naics_code": 541613.0, "naics_desc": "MARKETING CONSULTING SERVICES ", "lon": -122.36273933445671, "lat": 47.724859726197032 }, "geometry": { "type": "Point", "coordinates": [ -122.362739334456705, 47.724859726197032 ] } },
{ "type": "Feature", "properties": { "name": "LOCAL YOKELS MARKET", "naics_code": 445110.0, "naics_desc": "SUPERMARKETS AND OTHER GROCERY RETAILERS (EXCEPT CONVENIENCE RETAILERS) ", "lon": -122.32278312037802, "lat": 47.690259375314092 }, "geometry": { "type": "Point", "coordinates": [ -122.32278312037802, 47.690259375314092 ] } },
{ "type": "Feature", "properties": { "name": "BURGER PLANET", "naics_code": 722330.0, "naics_desc": "MOBILE FOOD SERVICES", "lon": -122.31171231387653, "lat": 47.512635474315644 }, "geometry": { "type": "Point", "coordinates": [ -122.311712313876527, 47.512635474315644 ] } },
{ "type": "Feature", "properties": { "name": "LOVEY DOUGHVEY LLC", "naics_code": 445291.0, "naics_desc": "BAKED GOODS RETAILERS ", "lon": -122.3998166741241, "lat": 47.65152989617404 }, "geometry": { "type": "Point", "coordinates": [ -122.399816674124096, 47.65152989617404 ] } },
{ "type": "Feature", "properties": { "name": "RIMNA'S MARKET", "naics_code": 445110.0, "naics_desc": "SUPERMARKETS AND OTHER GROCERY RETAILERS (EXCEPT CONVENIENCE RETAILERS) ", "lon": -122.29639785158285, "lat": 47.599061652296534 }, "geometry": { "type": "Point", "coordinates": [ -122.296397851582853, 47.599061652296534 ] } },
{ "type": "Feature", "properties": { "name": "RINGA LLC", "naics_code": 424490.0, "naics_desc": "OTHER GROCERY AND RELATED PRODUCTS MERCHANT WHOLESALERS ", "lon": -122.38794012611417, "lat": 47.587711838470113 }, "geometry": { "type": "Point", "coordinates": [ -122.387940126114174, 47.587711838470113 ] } },
{ "type": "Feature", "properties": { "name": "U-VILLAGE KATE'S BAKERY", "naics_code": 445291.0, "naics_desc": "BAKED GOODS RETAILERS ", "lon": -122.29756171477068, "lat": 47.661504111232027 }, "geometry": { "type": "Point", "coordinates": [ -122.29756171477068, 47.661504111232027 ] } },
{ "type": "Feature", "properties": { "name": "EASTLAKE MARKET", "naics_code": 445110.0, "naics_desc": "SUPERMARKETS AND OTHER GROCERY RETAILERS (EXCEPT CONVENIENCE RETAILERS) ", "lon": -122.32554621807242, "lat": 47.639605174912226 }, "geometry": { "type": "Point", "coordinates": [ -122.325546218072418, 47.639605174912226 ] } },
{ "type": "Feature", "properties": { "name": "SALUD CANDLES SOAP & MORE", "naics_code": 722330.0, "naics_desc": "MOBILE FOOD SERVICES", "lon": -122.31104704048944, "lat": 47.579740555221576 }, "geometry": { "type": "Point", "coordinates": [ -122.311047040489441, 47.579740555221576 ] } },
{ "type": "Feature", "properties": { "name": "WHERE YA AT MATT", "naics_code": 722310.0, "naics_desc": "FOOD SERVICE CONTRACTORS", "lon": -122.3102721957664, "lat": 47.670512383500537 }, "geometry": { "type": "Point", "coordinates": [ -122.310272195766402, 47.670512383500537 ] } },
{ "type": "Feature", "properties": { "name": "7 ELEVEN #17486N", "naics_code": 457110.0, "naics_desc": "GASOLINE STATIONS WITH CONVENIENCE STORES ", "lon": -122.23793886495963, "lat": 47.490129646472994 }, "geometry": { "type": "Point", "coordinates": [ -122.237938864959631, 47.490129646472994 ] } },
{ "type": "Feature", "properties": { "name": "SCOOBY DOGS", "naics_code": 722330.0, "naics_desc": "MOBILE FOOD SERVICES", "lon": -122.25728060415517, "lat": 47.489573340535742 }, "geometry": { "type": "Point", "coordinates": [ -122.25728060415517, 47.489573340535742 ] } },
{ "type": "Feature", "properties": { "name": "A1 MARKET INC", "naics_code": 445110.0, "naics_desc": "SUPERMARKETS AND OTHER GROCERY RETAILERS (EXCEPT CONVENIENCE RETAILERS) ", "lon": -122.35605681206444, "lat": 47.73344978712786 }, "geometry": { "type": "Point", "coordinates": [ -122.356056812064438, 47.73344978712786 ] } },
{ "type": "Feature", "properties": { "name": "ABAY MARKET", "naics_code": 445131.0, "naics_desc": "CONVENIENCE RETAILERS ", "lon": -122.29609547151991, "lat": 47.718450856893874 }, "geometry": { "type": "Point", "coordinates": [ -122.296095471519905, 47.718450856893874 ] } },
{ "type": "Feature", "properties": { "name": "QUICK CHIC", "naics_code": 445131.0, "naics_desc": "CONVENIENCE RETAILERS ", "lon": -122.35545546481106, "lat": 47.522717173270415 }, "geometry": { "type": "Point", "coordinates": [ -122.355455464811058, 47.522717173270415 ] } },
{ "type": "Feature", "properties": { "name": "GOLDEN HOPE ASIAN FOOD STORE", "naics_code": 445131.0, "naics_desc": "CONVENIENCE RETAILERS ", "lon": -122.35707168399327, "lat": 47.625467914210162 }, "geometry": { "type": "Point", "coordinates": [ -122.357071683993269, 47.625467914210162 ] } },
{ "type": "Feature", "properties": { "name": "SEEKING KOMBUCHA", "naics_code": 722330.0, "naics_desc": "MOBILE FOOD SERVICES", "lon": -122.3278267627332, "lat": 47.545527481589424 }, "geometry": { "type": "Point", "coordinates": [ -122.327826762733196, 47.545527481589424 ] } },
{ "type": "Feature", "properties": { "name": "EL TOROGOZ", "naics_code": 722330.0, "naics_desc": "MOBILE FOOD SERVICES", "lon": -122.31172019763137, "lat": 47.579738789101263 }, "geometry": { "type": "Point", "coordinates": [ -122.311720197631374, 47.579738789101263 ] } },
{ "type": "Feature", "properties": { "name": "CE BRANDS", "naics_code": 311119.0, "naics_desc": "OTHER ANIMAL FOOD MANUFACTURING ", "lon": -122.33235372606563, "lat": 47.650051075577942 }, "geometry": { "type": "Point", "coordinates": [ -122.332353726065634, 47.650051075577942 ] } },
{ "type": "Feature", "properties": { "name": "CENTRAL CO OP", "naics_code": 424410.0, "naics_desc": "GENERAL LINE GROCERY MERCHANT WHOLESALERS ", "lon": -122.31099338660091, "lat": 47.615543753875428 }, "geometry": { "type": "Point", "coordinates": [ -122.310993386600913, 47.615543753875428 ] } },
{ "type": "Feature", "properties": { "name": "GINA MAE COMMUNICATIONS", "naics_code": 541613.0, "naics_desc": "MARKETING CONSULTING SERVICES ", "lon": -122.34562029325079, "lat": 47.648478798643595 }, "geometry": { "type": "Point", "coordinates": [ -122.345620293250789, 47.648478798643595 ] } },
{ "type": "Feature", "properties": { "name": "TANOOR", "naics_code": 445298.0, "naics_desc": "ALL OTHER SPECIALTY FOOD RETAILERS ", "lon": -122.34266590278686, "lat": 47.626663904903488 }, "geometry": { "type": "Point", "coordinates": [ -122.342665902786862, 47.626663904903488 ] } },
{ "type": "Feature", "properties": { "name": "FEARLESS CREATIVE INC", "naics_code": 541613.0, "naics_desc": "MARKETING CONSULTING SERVICES ", "lon": -122.31776443409809, "lat": 47.613665963210288 }, "geometry": { "type": "Point", "coordinates": [ -122.317764434098095, 47.613665963210288 ] } },
{ "type": "Feature", "properties": { "name": "CIRCLE K 9653", "naics_code": 457110.0, "naics_desc": "GASOLINE STATIONS WITH CONVENIENCE STORES ", "lon": -122.31009888211047, "lat": 47.594681339346806 }, "geometry": { "type": "Point", "coordinates": [ -122.310098882110466, 47.594681339346806 ] } },
{ "type": "Feature", "properties": { "name": "CIRCLE K 9652", "naics_code": 457110.0, "naics_desc": "GASOLINE STATIONS WITH CONVENIENCE STORES ", "lon": -122.31911136290014, "lat": 47.676149362285017 }, "geometry": { "type": "Point", "coordinates": [ -122.319111362900145, 47.676149362285017 ] } },
{ "type": "Feature", "properties": { "name": "ARCO AM PM", "naics_code": 457110.0, "naics_desc": "GASOLINE STATIONS WITH CONVENIENCE STORES ", "lon": -122.30328347915624, "lat": 47.607832270210437 }, "geometry": { "type": "Point", "coordinates": [ -122.303283479156235, 47.607832270210437 ] } },
{ "type": "Feature", "properties": { "name": "MONEYFINGERS INC", "naics_code": 541613.0, "naics_desc": "MARKETING CONSULTING SERVICES ", "lon": -122.32123152709339, "lat": 47.613186391910617 }, "geometry": { "type": "Point", "coordinates": [ -122.321231527093389, 47.613186391910617 ] } },
{ "type": "Feature", "properties": { "name": "NW FRESH CUTS", "naics_code": 445230.0, "naics_desc": "FRUIT AND VEGETABLE RETAILERS ", "lon": -122.3280719446493, "lat": 47.588568010513434 }, "geometry": { "type": "Point", "coordinates": [ -122.328071944649295, 47.588568010513434 ] } },
{ "type": "Feature", "properties": { "name": "AMERICAN POLYNESIAN ORGANIZATION", "naics_code": 624210.0, "naics_desc": "COMMUNITY FOOD SERVICES ", "lon": -122.31599834024857, "lat": 47.525779950660841 }, "geometry": { "type": "Point", "coordinates": [ -122.315998340248569, 47.525779950660841 ] } },
{ "type": "Feature", "properties": { "name": "ANDREA DEAL CONSULTING", "naics_code": 541613.0, "naics_desc": "MARKETING CONSULTING SERVICES ", "lon": -122.2805122690766, "lat": 47.63613196228183 }, "geometry": { "type": "Point", "coordinates": [ -122.280512269076596, 47.63613196228183 ] } },
{ "type": "Feature", "properties": { "name": "ANNE DEVINE COMMUNICATIONS", "naics_code": 541613.0, "naics_desc": "MARKETING CONSULTING SERVICES ", "lon": -122.28241214586934, "lat": 47.633716278796136 }, "geometry": { "type": "Point", "coordinates": [ -122.282412145869344, 47.633716278796136 ] } },
{ "type": "Feature", "properties": { "name": "ASCEND CHEVRON", "naics_code": 445131.0, "naics_desc": "CONVENIENCE RETAILERS ", "lon": -122.32271393326346, "lat": 47.690657359150769 }, "geometry": { "type": "Point", "coordinates": [ -122.322713933263458, 47.690657359150769 ] } },
{ "type": "Feature", "properties": { "name": "MEMORYBLUE", "naics_code": 541613.0, "naics_desc": "MARKETING CONSULTING SERVICES ", "lon": -122.34792477496627, "lat": 47.617327184163265 }, "geometry": { "type": "Point", "coordinates": [ -122.347924774966273, 47.617327184163265 ] } },
{ "type": "Feature", "properties": { "name": "METROPOLITAN MARKET", "naics_code": 445110.0, "naics_desc": "SUPERMARKETS AND OTHER GROCERY RETAILERS (EXCEPT CONVENIENCE RETAILERS) ", "lon": -122.37617986274383, "lat": 47.691701930534897 }, "geometry": { "type": "Point", "coordinates": [ -122.376179862743825, 47.691701930534897 ] } },
{ "type": "Feature", "properties": { "name": "BLACKSTAR KEBABS", "naics_code": 722330.0, "naics_desc": "MOBILE FOOD SERVICES", "lon": -122.26326619311612, "lat": 47.68682499120974 }, "geometry": { "type": "Point", "coordinates": [ -122.263266193116124, 47.68682499120974 ] } },
{ "type": "Feature", "properties": { "name": "BEACON HILL FOOD", "naics_code": 445131.0, "naics_desc": "CONVENIENCE RETAILERS ", "lon": -122.31379160872633, "lat": 47.564030521992834 }, "geometry": { "type": "Point", "coordinates": [ -122.313791608726333, 47.564030521992834 ] } },
{ "type": "Feature", "properties": { "name": "CUCINA FRESCA", "naics_code": 445110.0, "naics_desc": "SUPERMARKETS AND OTHER GROCERY RETAILERS (EXCEPT CONVENIENCE RETAILERS) ", "lon": -122.29444623583863, "lat": 47.528719955804782 }, "geometry": { "type": "Point", "coordinates": [ -122.294446235838635, 47.528719955804782 ] } },
{ "type": "Feature", "properties": { "name": "CULT COOKIES", "naics_code": 722330.0, "naics_desc": "MOBILE FOOD SERVICES", "lon": -122.36463822985949, "lat": 47.641129937893567 }, "geometry": { "type": "Point", "coordinates": [ -122.364638229859494, 47.641129937893567 ] } },
{ "type": "Feature", "properties": { "name": "DA BOMB PRODUCTS LLC", "naics_code": 456191.0, "naics_desc": "FOOD (HEALTH) SUPPLEMENT RETAILERS ", "lon": -122.34152787093112, "lat": 47.632116093598214 }, "geometry": { "type": "Point", "coordinates": [ -122.341527870931117, 47.632116093598214 ] } },
{ "type": "Feature", "properties": { "name": "ENAT SOUK DELI", "naics_code": 445110.0, "naics_desc": "SUPERMARKETS AND OTHER GROCERY RETAILERS (EXCEPT CONVENIENCE RETAILERS) ", "lon": -122.31223257273935, "lat": 47.713481888793183 }, "geometry": { "type": "Point", "coordinates": [ -122.312232572739347, 47.713481888793183 ] } },
{ "type": "Feature", "properties": { "name": "THE AD SCHOOL", "naics_code": 541613.0, "naics_desc": "MARKETING CONSULTING SERVICES ", "lon": -122.38116860206064, "lat": 47.668959638465793 }, "geometry": { "type": "Point", "coordinates": [ -122.38116860206064, 47.668959638465793 ] } },
{ "type": "Feature", "properties": { "name": "ALIDA (US) INC.", "naics_code": 541910.0, "naics_desc": "MARKETING RESEARCH AND PUBLIC OPINION POLLING", "lon": -122.33970756563947, "lat": 47.614820134214163 }, "geometry": { "type": "Point", "coordinates": [ -122.339707565639472, 47.614820134214163 ] } },
{ "type": "Feature", "properties": { "name": "NOON INTERNATIONAL", "naics_code": 424420.0, "naics_desc": "PACKAGED FROZEN FOOD MERCHANT WHOLESALERS ", "lon": -122.32617650225686, "lat": 47.553165680274709 }, "geometry": { "type": "Point", "coordinates": [ -122.326176502256857, 47.553165680274709 ] } },
{ "type": "Feature", "properties": { "name": "MILL ST COFFEE", "naics_code": 722330.0, "naics_desc": "MOBILE FOOD SERVICES", "lon": -122.36736989485834, "lat": 47.639403915172849 }, "geometry": { "type": "Point", "coordinates": [ -122.367369894858342, 47.639403915172849 ] } },
{ "type": "Feature", "properties": { "name": "NANDI BUTCHER COMMUNICATIONS LLC", "naics_code": 541613.0, "naics_desc": "MARKETING CONSULTING SERVICES ", "lon": -122.28782724526057, "lat": 47.580586802728732 }, "geometry": { "type": "Point", "coordinates": [ -122.287827245260573, 47.580586802728732 ] } },
{ "type": "Feature", "properties": { "name": "NATA", "naics_code": 722330.0, "naics_desc": "MOBILE FOOD SERVICES", "lon": -122.32698333386679, "lat": 47.661791982468849 }, "geometry": { "type": "Point", "coordinates": [ -122.326983333866792, 47.661791982468849 ] } },
{ "type": "Feature", "properties": { "name": "SUNRISE TACOS", "naics_code": 424490.0, "naics_desc": "OTHER GROCERY AND RELATED PRODUCTS MERCHANT WHOLESALERS ", "lon": -122.26869271392776, "lat": 47.562424359057445 }, "geometry": { "type": "Point", "coordinates": [ -122.268692713927763, 47.562424359057445 ] } },
{ "type": "Feature", "properties": { "name": "DREXEL DELI & GROCERY", "naics_code": 445131.0, "naics_desc": "CONVENIENCE RETAILERS ", "lon": -122.33156889296365, "lat": 47.602496098478653 }, "geometry": { "type": "Point", "coordinates": [ -122.331568892963645, 47.602496098478653 ] } },
{ "type": "Feature", "properties": { "name": "CAFE LOLO", "naics_code": 722330.0, "naics_desc": "MOBILE FOOD SERVICES", "lon": -122.30935064656501, "lat": 47.670602764599273 }, "geometry": { "type": "Point", "coordinates": [ -122.309350646565008, 47.670602764599273 ] } },
{ "type": "Feature", "properties": { "name": "CAFFE UMBRIA INC", "naics_code": 424490.0, "naics_desc": "OTHER GROCERY AND RELATED PRODUCTS MERCHANT WHOLESALERS ", "lon": -122.31232794625157, "lat": 47.5258288363041 }, "geometry": { "type": "Point", "coordinates": [ -122.312327946251571, 47.5258288363041 ] } },
{ "type": "Feature", "properties": { "name": "BROWN BEAR CAR WASH", "naics_code": 457110.0, "naics_desc": "GASOLINE STATIONS WITH CONVENIENCE STORES ", "lon": -122.37648836692762, "lat": 47.66608126487754 }, "geometry": { "type": "Point", "coordinates": [ -122.376488366927617, 47.66608126487754 ] } },
{ "type": "Feature", "properties": { "name": "LICOS TACOS LLC", "naics_code": 722330.0, "naics_desc": "MOBILE FOOD SERVICES", "lon": -122.32910104239603, "lat": 47.555390554923797 }, "geometry": { "type": "Point", "coordinates": [ -122.329101042396033, 47.555390554923797 ] } },
{ "type": "Feature", "properties": { "name": "LIGHTFARE LLC", "naics_code": 492210.0, "naics_desc": "LOCAL MESSENGERS AND LOCAL DELIVERY", "lon": -122.31859500224292, "lat": 47.657154760785488 }, "geometry": { "type": "Point", "coordinates": [ -122.318595002242915, 47.657154760785488 ] } },
{ "type": "Feature", "properties": { "name": "MERLINO FOODS", "naics_code": 424410.0, "naics_desc": "GENERAL LINE GROCERY MERCHANT WHOLESALERS ", "lon": -122.32890168816141, "lat": 47.565590442868789 }, "geometry": { "type": "Point", "coordinates": [ -122.328901688161409, 47.565590442868789 ] } },
{ "type": "Feature", "properties": { "name": "DELRIDGE DELI", "naics_code": 445110.0, "naics_desc": "SUPERMARKETS AND OTHER GROCERY RETAILERS (EXCEPT CONVENIENCE RETAILERS) ", "lon": -122.36370384699065, "lat": 47.56877439352882 }, "geometry": { "type": "Point", "coordinates": [ -122.363703846990646, 47.56877439352882 ] } },
{ "type": "Feature", "properties": { "name": "DNW DIGITAL", "naics_code": 541613.0, "naics_desc": "MARKETING CONSULTING SERVICES ", "lon": -122.37580342144959, "lat": 47.668962218069105 }, "geometry": { "type": "Point", "coordinates": [ -122.375803421449589, 47.668962218069105 ] } },
{ "type": "Feature", "properties": { "name": "DOMAIN INC", "naics_code": 541613.0, "naics_desc": "MARKETING CONSULTING SERVICES ", "lon": -122.40376513753303, "lat": 47.580859397413782 }, "geometry": { "type": "Point", "coordinates": [ -122.403765137533028, 47.580859397413782 ] } },
{ "type": "Feature", "properties": { "name": "LA FONDITA TRUCK RESTAURANT INC", "naics_code": 722330.0, "naics_desc": "MOBILE FOOD SERVICES", "lon": -122.34491209786593, "lat": 47.694024419243831 }, "geometry": { "type": "Point", "coordinates": [ -122.344912097865929, 47.694024419243831 ] } },
{ "type": "Feature", "properties": { "name": "LA PASTA", "naics_code": 311991.0, "naics_desc": "PERISHABLE PREPARED FOOD MANUFACTURING ", "lon": -122.29035626323309, "lat": 47.695129703216089 }, "geometry": { "type": "Point", "coordinates": [ -122.290356263233093, 47.695129703216089 ] } },
{ "type": "Feature", "properties": { "name": "LAGANA FOODS", "naics_code": 311991.0, "naics_desc": "PERISHABLE PREPARED FOOD MANUFACTURING ", "lon": -122.39373767598732, "lat": 47.668223386147687 }, "geometry": { "type": "Point", "coordinates": [ -122.393737675987325, 47.668223386147687 ] } },
{ "type": "Feature", "properties": { "name": "LAID BACK RIDES LLC", "naics_code": 492110.0, "naics_desc": "COURIERS AND EXPRESS DELIVERY SERVICES", "lon": -122.33428243302802, "lat": 47.706548203565447 }, "geometry": { "type": "Point", "coordinates": [ -122.334282433028022, 47.706548203565447 ] } },
{ "type": "Feature", "properties": { "name": "FISH BASKET NW", "naics_code": 722330.0, "naics_desc": "MOBILE FOOD SERVICES", "lon": -122.26315366813816, "lat": 47.519936126753471 }, "geometry": { "type": "Point", "coordinates": [ -122.263153668138159, 47.519936126753471 ] } },
{ "type": "Feature", "properties": { "name": "GREGORY MICHAEL OLSON", "naics_code": 541613.0, "naics_desc": "MARKETING CONSULTING SERVICES ", "lon": -122.38629605994073, "lat": 47.670774330350667 }, "geometry": { "type": "Point", "coordinates": [ -122.386296059940733, 47.670774330350667 ] } },
{ "type": "Feature", "properties": { "name": "ONE & THREE 604618972", "naics_code": 541613.0, "naics_desc": "MARKETING CONSULTING SERVICES ", "lon": -122.25639287409084, "lat": 47.515951873874421 }, "geometry": { "type": "Point", "coordinates": [ -122.256392874090835, 47.515951873874421 ] } },
{ "type": "Feature", "properties": { "name": "OOINK", "naics_code": 445298.0, "naics_desc": "ALL OTHER SPECIALTY FOOD RETAILERS ", "lon": -122.32177217101192, "lat": 47.613841076119542 }, "geometry": { "type": "Point", "coordinates": [ -122.321772171011915, 47.613841076119542 ] } },
{ "type": "Feature", "properties": { "name": "HUI INTERTRADING", "naics_code": 424410.0, "naics_desc": "GENERAL LINE GROCERY MERCHANT WHOLESALERS ", "lon": -122.30382442292353, "lat": 47.584181391373711 }, "geometry": { "type": "Point", "coordinates": [ -122.303824422923526, 47.584181391373711 ] } },
{ "type": "Feature", "properties": { "name": "UNION STATION MARKET", "naics_code": 445110.0, "naics_desc": "SUPERMARKETS AND OTHER GROCERY RETAILERS (EXCEPT CONVENIENCE RETAILERS) ", "lon": -122.32718340953359, "lat": 47.599003519742737 }, "geometry": { "type": "Point", "coordinates": [ -122.327183409533589, 47.599003519742737 ] } },
{ "type": "Feature", "properties": { "name": "IAN LURIE CONSULTING LLC", "naics_code": 541613.0, "naics_desc": "MARKETING CONSULTING SERVICES ", "lon": -122.38448242274242, "lat": 47.56727175125144 }, "geometry": { "type": "Point", "coordinates": [ -122.384482422742423, 47.56727175125144 ] } },
{ "type": "Feature", "properties": { "name": "ICICLE SEAFOODS INC", "naics_code": 424460.0, "naics_desc": "FISH AND SEAFOOD MERCHANT WHOLESALERS ", "lon": -122.38384031223512, "lat": 47.65649651558499 }, "geometry": { "type": "Point", "coordinates": [ -122.383840312235122, 47.65649651558499 ] } },
{ "type": "Feature", "properties": { "name": "ICONICITY WORKS LLC", "naics_code": 541613.0, "naics_desc": "MARKETING CONSULTING SERVICES ", "lon": -122.3549125377491, "lat": 47.68496350578895 }, "geometry": { "type": "Point", "coordinates": [ -122.354912537749101, 47.68496350578895 ] } },
{ "type": "Feature", "properties": { "name": "MOUBAK FRITTA", "naics_code": 722330.0, "naics_desc": "MOBILE FOOD SERVICES", "lon": -122.31718507987216, "lat": 47.676963539439313 }, "geometry": { "type": "Point", "coordinates": [ -122.317185079872161, 47.676963539439313 ] } },
{ "type": "Feature", "properties": { "name": "THRIVEKITE", "naics_code": 541613.0, "naics_desc": "MARKETING CONSULTING SERVICES ", "lon": -122.29669309642271, "lat": 47.673274333145912 }, "geometry": { "type": "Point", "coordinates": [ -122.296693096422715, 47.673274333145912 ] } },
{ "type": "Feature", "properties": { "name": "TINY INDUSTRIES LLC", "naics_code": 722330.0, "naics_desc": "MOBILE FOOD SERVICES", "lon": -122.34970171263716, "lat": 47.512118520251079 }, "geometry": { "type": "Point", "coordinates": [ -122.349701712637156, 47.512118520251079 ] } },
{ "type": "Feature", "properties": { "name": "TOMORROW THE OTHER WAY LLC", "naics_code": 541613.0, "naics_desc": "MARKETING CONSULTING SERVICES ", "lon": -122.29900410656953, "lat": 47.591427089427107 }, "geometry": { "type": "Point", "coordinates": [ -122.299004106569527, 47.591427089427107 ] } },
{ "type": "Feature", "properties": { "name": "URBAN BIRD CONSULTING", "naics_code": 541613.0, "naics_desc": "MARKETING CONSULTING SERVICES ", "lon": -122.35184589112696, "lat": 47.625763097708806 }, "geometry": { "type": "Point", "coordinates": [ -122.351845891126956, 47.625763097708806 ] } },
{ "type": "Feature", "properties": { "name": "JONBOY CARAMELS", "naics_code": 311919.0, "naics_desc": "OTHER SNACK FOOD MANUFACTURING ", "lon": -122.36838442194805, "lat": 47.664545601898851 }, "geometry": { "type": "Point", "coordinates": [ -122.368384421948051, 47.664545601898851 ] } },
{ "type": "Feature", "properties": { "name": "KEBLAS BUSINESS DEVELOPMENT LLC", "naics_code": 541613.0, "naics_desc": "MARKETING CONSULTING SERVICES ", "lon": -122.25278307944855, "lat": 47.512809763410658 }, "geometry": { "type": "Point", "coordinates": [ -122.252783079448548, 47.512809763410658 ] } },
{ "type": "Feature", "properties": { "name": "FRESH ROOTS SEATTLE", "naics_code": 722330.0, "naics_desc": "MOBILE FOOD SERVICES", "lon": -122.33524686168951, "lat": 47.61399275572979 }, "geometry": { "type": "Point", "coordinates": [ -122.335246861689512, 47.61399275572979 ] } },
{ "type": "Feature", "properties": { "name": "JOY MINI MART", "naics_code": 445131.0, "naics_desc": "CONVENIENCE RETAILERS ", "lon": -122.3133710797083, "lat": 47.664431901704347 }, "geometry": { "type": "Point", "coordinates": [ -122.313371079708304, 47.664431901704347 ] } },
{ "type": "Feature", "properties": { "name": "MARINATION MA KAI", "naics_code": 722330.0, "naics_desc": "MOBILE FOOD SERVICES", "lon": -122.38062203546076, "lat": 47.58943391176102 }, "geometry": { "type": "Point", "coordinates": [ -122.38062203546076, 47.58943391176102 ] } },
{ "type": "Feature", "properties": { "name": "MATR ARCO AM PM", "naics_code": 457110.0, "naics_desc": "GASOLINE STATIONS WITH CONVENIENCE STORES ", "lon": -122.3451662296697, "lat": 47.690885756472284 }, "geometry": { "type": "Point", "coordinates": [ -122.345166229669701, 47.690885756472284 ] } },
{ "type": "Feature", "properties": { "name": "MAYORES WASHINGTON CHICKEN", "naics_code": 722330.0, "naics_desc": "MOBILE FOOD SERVICES", "lon": -122.31273999726085, "lat": 47.670345319207819 }, "geometry": { "type": "Point", "coordinates": [ -122.312739997260849, 47.670345319207819 ] } },
{ "type": "Feature", "properties": { "name": "GRACEEE CONSULTING", "naics_code": 541613.0, "naics_desc": "MARKETING CONSULTING SERVICES ", "lon": -122.37269243262371, "lat": 47.565434081120102 }, "geometry": { "type": "Point", "coordinates": [ -122.372692432623708, 47.565434081120102 ] } },
{ "type": "Feature", "properties": { "name": "GREENHART GROCERY LLC", "naics_code": 445298.0, "naics_desc": "ALL OTHER SPECIALTY FOOD RETAILERS ", "lon": -122.33029376492409, "lat": 47.605735086604724 }, "geometry": { "type": "Point", "coordinates": [ -122.330293764924093, 47.605735086604724 ] } },
{ "type": "Feature", "properties": { "name": "GROUNDSWELL COMMUNICATIONS LLC", "naics_code": 541613.0, "naics_desc": "MARKETING CONSULTING SERVICES ", "lon": -122.26002324903631, "lat": 47.546465784556332 }, "geometry": { "type": "Point", "coordinates": [ -122.260023249036308, 47.546465784556332 ] } },
{ "type": "Feature", "properties": { "name": "WESTLAKE DELI & GROCERY", "naics_code": 445131.0, "naics_desc": "CONVENIENCE RETAILERS ", "lon": -122.34051810084242, "lat": 47.63858686901667 }, "geometry": { "type": "Point", "coordinates": [ -122.340518100842417, 47.63858686901667 ] } },
{ "type": "Feature", "properties": { "name": "OH DANG IN A CUP", "naics_code": 722330.0, "naics_desc": "MOBILE FOOD SERVICES", "lon": -122.39684947150904, "lat": 47.663209521627827 }, "geometry": { "type": "Point", "coordinates": [ -122.396849471509043, 47.663209521627827 ] } },
{ "type": "Feature", "properties": { "name": "TACOS EXTRANJEROS LLC", "naics_code": 722330.0, "naics_desc": "MOBILE FOOD SERVICES", "lon": -122.35575973210842, "lat": 47.623848874864265 }, "geometry": { "type": "Point", "coordinates": [ -122.355759732108424, 47.623848874864265 ] } },
{ "type": "Feature", "properties": { "name": "TALYER LLC", "naics_code": 722310.0, "naics_desc": "FOOD SERVICE CONTRACTORS", "lon": -122.32076683359212, "lat": 47.539658381545017 }, "geometry": { "type": "Point", "coordinates": [ -122.320766833592117, 47.539658381545017 ] } },
{ "type": "Feature", "properties": { "name": "TAQUERIA LA HERRADURA", "naics_code": 722330.0, "naics_desc": "MOBILE FOOD SERVICES", "lon": -122.24851074671945, "lat": 47.497318138948707 }, "geometry": { "type": "Point", "coordinates": [ -122.248510746719447, 47.497318138948707 ] } },
{ "type": "Feature", "properties": { "name": "TAQUERIA LOS ORTEGA", "naics_code": 722330.0, "naics_desc": "MOBILE FOOD SERVICES", "lon": -122.3665375438096, "lat": 47.514879030778751 }, "geometry": { "type": "Point", "coordinates": [ -122.366537543809599, 47.514879030778751 ] } },
{ "type": "Feature", "properties": { "name": "ODD DOG MEDIA", "naics_code": 541613.0, "naics_desc": "MARKETING CONSULTING SERVICES ", "lon": -122.35694118831641, "lat": 47.653080189029048 }, "geometry": { "type": "Point", "coordinates": [ -122.356941188316412, 47.653080189029048 ] } },
{ "type": "Feature", "properties": { "name": "LA PATRONCITA", "naics_code": 722330.0, "naics_desc": "MOBILE FOOD SERVICES", "lon": -122.33406245981058, "lat": 47.504679708640523 }, "geometry": { "type": "Point", "coordinates": [ -122.334062459810582, 47.504679708640523 ] } },
{ "type": "Feature", "properties": { "name": "BIRRIERIA TIJUANA", "naics_code": 722330.0, "naics_desc": "MOBILE FOOD SERVICES", "lon": -122.31300782794061, "lat": 47.658143104312067 }, "geometry": { "type": "Point", "coordinates": [ -122.313007827940609, 47.658143104312067 ] } },
{ "type": "Feature", "properties": { "name": "COE CREATIVE LLC", "naics_code": 541613.0, "naics_desc": "MARKETING CONSULTING SERVICES ", "lon": -122.26494447567362, "lat": 47.537843096925151 }, "geometry": { "type": "Point", "coordinates": [ -122.264944475673616, 47.537843096925151 ] } },
{ "type": "Feature", "properties": { "name": "DAYLIGHT DIGITAL MARKETING", "naics_code": 541613.0, "naics_desc": "MARKETING CONSULTING SERVICES ", "lon": -122.39734997151096, "lat": 47.677121487941022 }, "geometry": { "type": "Point", "coordinates": [ -122.397349971510963, 47.677121487941022 ] } },
{ "type": "Feature", "properties": { "name": "FRIENDLY ISLANDS OF TONGA SENIORS", "naics_code": 722310.0, "naics_desc": "FOOD SERVICE CONTRACTORS", "lon": -122.39227629868036, "lat": 47.546980247971781 }, "geometry": { "type": "Point", "coordinates": [ -122.392276298680358, 47.546980247971781 ] } },
{ "type": "Feature", "properties": { "name": "FRUTAS 206", "naics_code": 722330.0, "naics_desc": "MOBILE FOOD SERVICES", "lon": -122.30133347152429, "lat": 47.550435301598831 }, "geometry": { "type": "Point", "coordinates": [ -122.301333471524288, 47.550435301598831 ] } },
{ "type": "Feature", "properties": { "name": "HOME DELI & GROCERY", "naics_code": 445110.0, "naics_desc": "SUPERMARKETS AND OTHER GROCERY RETAILERS (EXCEPT CONVENIENCE RETAILERS) ", "lon": -122.33286075110324, "lat": 47.623275542341723 }, "geometry": { "type": "Point", "coordinates": [ -122.33286075110324, 47.623275542341723 ] } },
{ "type": "Feature", "properties": { "name": "EL QUETZAL TIENDA LATINA & MINI MART", "naics_code": 445110.0, "naics_desc": "SUPERMARKETS AND OTHER GROCERY RETAILERS (EXCEPT CONVENIENCE RETAILERS) ", "lon": -122.33577134918171, "lat": 47.520345894108104 }, "geometry": { "type": "Point", "coordinates": [ -122.335771349181712, 47.520345894108104 ] } },
{ "type": "Feature", "properties": { "name": "STR8 UP SMOKING GRILL", "naics_code": 722330.0, "naics_desc": "MOBILE FOOD SERVICES", "lon": -122.29649040021403, "lat": 47.588805702310751 }, "geometry": { "type": "Point", "coordinates": [ -122.296490400214026, 47.588805702310751 ] } },
{ "type": "Feature", "properties": { "name": "SUDZI USER RESEARCH SERVICES", "naics_code": 541910.0, "naics_desc": "MARKETING RESEARCH AND PUBLIC OPINION POLLING", "lon": -122.31349626436624, "lat": 47.684310993741818 }, "geometry": { "type": "Point", "coordinates": [ -122.313496264366236, 47.684310993741818 ] } },
{ "type": "Feature", "properties": { "name": "EA THIBODEAUX CONSULTING LLC", "naics_code": 445131.0, "naics_desc": "CONVENIENCE RETAILERS ", "lon": -122.32656786332387, "lat": 47.59209307551383 }, "geometry": { "type": "Point", "coordinates": [ -122.326567863323874, 47.59209307551383 ] } },
{ "type": "Feature", "properties": { "name": "THIRDLEAF NW", "naics_code": 492210.0, "naics_desc": "LOCAL MESSENGERS AND LOCAL DELIVERY", "lon": -122.33283936486026, "lat": 47.58444995172681 }, "geometry": { "type": "Point", "coordinates": [ -122.332839364860263, 47.58444995172681 ] } },
{ "type": "Feature", "properties": { "name": "ARCTIC STORM MANAGEMENT GROUP LLC", "naics_code": 541613.0, "naics_desc": "MARKETING CONSULTING SERVICES ", "lon": -122.35376254469045, "lat": 47.614004980480139 }, "geometry": { "type": "Point", "coordinates": [ -122.353762544690454, 47.614004980480139 ] } },
{ "type": "Feature", "properties": { "name": "ARTESIAN MARKETING", "naics_code": 541613.0, "naics_desc": "MARKETING CONSULTING SERVICES ", "lon": -122.38115591046972, "lat": 47.559406895469053 }, "geometry": { "type": "Point", "coordinates": [ -122.381155910469715, 47.559406895469053 ] } },
{ "type": "Feature", "properties": { "name": "ARTIO STRATEGIES", "naics_code": 541613.0, "naics_desc": "MARKETING CONSULTING SERVICES ", "lon": -122.29838099784575, "lat": 47.683543910236708 }, "geometry": { "type": "Point", "coordinates": [ -122.298380997845754, 47.683543910236708 ] } },
{ "type": "Feature", "properties": { "name": "MILL ST COFFEE", "naics_code": 722330.0, "naics_desc": "MOBILE FOOD SERVICES", "lon": -122.33286340979241, "lat": 47.66305915125713 }, "geometry": { "type": "Point", "coordinates": [ -122.332863409792409, 47.66305915125713 ] } },
{ "type": "Feature", "properties": { "name": "MINT & OLIVE", "naics_code": 445298.0, "naics_desc": "ALL OTHER SPECIALTY FOOD RETAILERS ", "lon": -122.35728634105236, "lat": 47.624762505962977 }, "geometry": { "type": "Point", "coordinates": [ -122.357286341052358, 47.624762505962977 ] } },
{ "type": "Feature", "properties": { "name": "PTR CONSULTING LLC", "naics_code": 541613.0, "naics_desc": "MARKETING CONSULTING SERVICES ", "lon": -122.28851646342538, "lat": 47.662469358728828 }, "geometry": { "type": "Point", "coordinates": [ -122.288516463425381, 47.662469358728828 ] } },
{ "type": "Feature", "properties": { "name": "PCC COMMUNITY MARKETS", "naics_code": 445110.0, "naics_desc": "SUPERMARKETS AND OTHER GROCERY RETAILERS (EXCEPT CONVENIENCE RETAILERS) ", "lon": -122.30317573901206, "lat": 47.613302585046739 }, "geometry": { "type": "Point", "coordinates": [ -122.303175739012062, 47.613302585046739 ] } },
{ "type": "Feature", "properties": { "name": "NEW TOWN MARKET", "naics_code": 445110.0, "naics_desc": "SUPERMARKETS AND OTHER GROCERY RETAILERS (EXCEPT CONVENIENCE RETAILERS) ", "lon": -122.35312141776349, "lat": 47.615816831225608 }, "geometry": { "type": "Point", "coordinates": [ -122.353121417763489, 47.615816831225608 ] } },
{ "type": "Feature", "properties": { "name": "R & K FOODS INC", "naics_code": 424410.0, "naics_desc": "GENERAL LINE GROCERY MERCHANT WHOLESALERS ", "lon": -122.3269782220831, "lat": 47.588496790106412 }, "geometry": { "type": "Point", "coordinates": [ -122.326978222083099, 47.588496790106412 ] } },
{ "type": "Feature", "properties": { "name": "R J PLAZA SELECT FOODS", "naics_code": 445131.0, "naics_desc": "CONVENIENCE RETAILERS ", "lon": -122.32554632128974, "lat": 47.609405114759561 }, "geometry": { "type": "Point", "coordinates": [ -122.325546321289735, 47.609405114759561 ] } },
{ "type": "Feature", "properties": { "name": "REDPOINT COACHING", "naics_code": 541613.0, "naics_desc": "MARKETING CONSULTING SERVICES ", "lon": -122.28172506254937, "lat": 47.636219121970385 }, "geometry": { "type": "Point", "coordinates": [ -122.28172506254937, 47.636219121970385 ] } },
{ "type": "Feature", "properties": { "name": "TRISTEN BOOM", "naics_code": 445131.0, "naics_desc": "CONVENIENCE RETAILERS ", "lon": -122.32006344241395, "lat": 47.692087049542778 }, "geometry": { "type": "Point", "coordinates": [ -122.320063442413954, 47.692087049542778 ] } },
{ "type": "Feature", "properties": { "name": "ISLAND GIRL SEAFOOD", "naics_code": 722330.0, "naics_desc": "MOBILE FOOD SERVICES", "lon": -122.33718750662838, "lat": 47.660477377714351 }, "geometry": { "type": "Point", "coordinates": [ -122.337187506628382, 47.660477377714351 ] } },
{ "type": "Feature", "properties": { "name": "MIA ITALIA DISTRIBUTIONS", "naics_code": 424490.0, "naics_desc": "OTHER GROCERY AND RELATED PRODUCTS MERCHANT WHOLESALERS ", "lon": -122.35309931490026, "lat": 47.523347661396372 }, "geometry": { "type": "Point", "coordinates": [ -122.353099314900263, 47.523347661396372 ] } },
{ "type": "Feature", "properties": { "name": "SPICE BLISS ON WHEELS", "naics_code": 722330.0, "naics_desc": "MOBILE FOOD SERVICES", "lon": -122.32044911769385, "lat": 47.614575553038307 }, "geometry": { "type": "Point", "coordinates": [ -122.320449117693855, 47.614575553038307 ] } },
{ "type": "Feature", "properties": { "name": "TRADER JOES  147", "naics_code": 445110.0, "naics_desc": "SUPERMARKETS AND OTHER GROCERY RETAILERS (EXCEPT CONVENIENCE RETAILERS) ", "lon": -122.37401513137624, "lat": 47.662424938637955 }, "geometry": { "type": "Point", "coordinates": [ -122.37401513137624, 47.662424938637955 ] } },
{ "type": "Feature", "properties": { "name": "PACIFIC LIVE LLC", "naics_code": 445110.0, "naics_desc": "SUPERMARKETS AND OTHER GROCERY RETAILERS (EXCEPT CONVENIENCE RETAILERS) ", "lon": -122.31813961922352, "lat": 47.661787033237047 }, "geometry": { "type": "Point", "coordinates": [ -122.318139619223516, 47.661787033237047 ] } },
{ "type": "Feature", "properties": { "name": "PACIFIC NORTHWEST DIGITAL MARKETING", "naics_code": 541613.0, "naics_desc": "MARKETING CONSULTING SERVICES ", "lon": -122.36196777519075, "lat": 47.712552396309675 }, "geometry": { "type": "Point", "coordinates": [ -122.361967775190749, 47.712552396309675 ] } },
{ "type": "Feature", "properties": { "name": "PAPA MURPHYS", "naics_code": 445298.0, "naics_desc": "ALL OTHER SPECIALTY FOOD RETAILERS ", "lon": -122.29605551856694, "lat": 47.721462993870723 }, "geometry": { "type": "Point", "coordinates": [ -122.296055518566945, 47.721462993870723 ] } },
{ "type": "Feature", "properties": { "name": "SEATTLE SCONE CO.", "naics_code": 445291.0, "naics_desc": "BAKED GOODS RETAILERS ", "lon": -122.35458985790898, "lat": 47.664148669460225 }, "geometry": { "type": "Point", "coordinates": [ -122.354589857908977, 47.664148669460225 ] } },
{ "type": "Feature", "properties": { "name": "YESLER MARKET", "naics_code": 445131.0, "naics_desc": "CONVENIENCE RETAILERS ", "lon": -122.3073953707047, "lat": 47.601879308515556 }, "geometry": { "type": "Point", "coordinates": [ -122.307395370704697, 47.601879308515556 ] } },
{ "type": "Feature", "properties": { "name": "7 ELEVEN #16365F", "naics_code": 445131.0, "naics_desc": "CONVENIENCE RETAILERS ", "lon": -122.38810833464035, "lat": 47.673555431702098 }, "geometry": { "type": "Point", "coordinates": [ -122.38810833464035, 47.673555431702098 ] } },
{ "type": "Feature", "properties": { "name": "GRAN FRUTA DISFRUTA", "naics_code": 722330.0, "naics_desc": "MOBILE FOOD SERVICES", "lon": -122.34380111078397, "lat": 47.70567621440231 }, "geometry": { "type": "Point", "coordinates": [ -122.343801110783971, 47.70567621440231 ] } },
{ "type": "Feature", "properties": { "name": "DISTRICT H", "naics_code": 445110.0, "naics_desc": "SUPERMARKETS AND OTHER GROCERY RETAILERS (EXCEPT CONVENIENCE RETAILERS) ", "lon": -122.33754814544959, "lat": 47.618796646677573 }, "geometry": { "type": "Point", "coordinates": [ -122.337548145449588, 47.618796646677573 ] } },
{ "type": "Feature", "properties": { "name": "BUBBAS SALSA", "naics_code": 445298.0, "naics_desc": "ALL OTHER SPECIALTY FOOD RETAILERS ", "lon": -122.38302983699728, "lat": 47.666639310671592 }, "geometry": { "type": "Point", "coordinates": [ -122.383029836997281, 47.666639310671592 ] } },
{ "type": "Feature", "properties": { "name": "GIVE IT A CHAI", "naics_code": 445298.0, "naics_desc": "ALL OTHER SPECIALTY FOOD RETAILERS ", "lon": -122.41030087027768, "lat": 47.569997010344217 }, "geometry": { "type": "Point", "coordinates": [ -122.41030087027768, 47.569997010344217 ] } },
{ "type": "Feature", "properties": { "name": "H MART UW", "naics_code": 445110.0, "naics_desc": "SUPERMARKETS AND OTHER GROCERY RETAILERS (EXCEPT CONVENIENCE RETAILERS) ", "lon": -122.31291488078334, "lat": 47.658892943759362 }, "geometry": { "type": "Point", "coordinates": [ -122.312914880783339, 47.658892943759362 ] } },
{ "type": "Feature", "properties": { "name": "ISLAND DELIGHTS", "naics_code": 722330.0, "naics_desc": "MOBILE FOOD SERVICES", "lon": -122.32063140752541, "lat": 47.574404364438983 }, "geometry": { "type": "Point", "coordinates": [ -122.320631407525411, 47.574404364438983 ] } },
{ "type": "Feature", "properties": { "name": "RESTAURANT DEPOT", "naics_code": 424410.0, "naics_desc": "GENERAL LINE GROCERY MERCHANT WHOLESALERS ", "lon": -122.33776161411336, "lat": 47.568953576304622 }, "geometry": { "type": "Point", "coordinates": [ -122.337761614113361, 47.568953576304622 ] } },
{ "type": "Feature", "properties": { "name": "RED THREAD ADVISING", "naics_code": 541613.0, "naics_desc": "MARKETING CONSULTING SERVICES ", "lon": -122.27203885076356, "lat": 47.679695075445885 }, "geometry": { "type": "Point", "coordinates": [ -122.272038850763565, 47.679695075445885 ] } },
{ "type": "Feature", "properties": { "name": "PAWSABILITIES", "naics_code": 445298.0, "naics_desc": "ALL OTHER SPECIALTY FOOD RETAILERS ", "lon": -122.38222614030818, "lat": 47.551514731717603 }, "geometry": { "type": "Point", "coordinates": [ -122.382226140308177, 47.551514731717603 ] } },
{ "type": "Feature", "properties": { "name": "CHEVRON CSI  1113", "naics_code": 457110.0, "naics_desc": "GASOLINE STATIONS WITH CONVENIENCE STORES ", "lon": -122.33459837948733, "lat": 47.549704439720188 }, "geometry": { "type": "Point", "coordinates": [ -122.334598379487332, 47.549704439720188 ] } },
{ "type": "Feature", "properties": { "name": "WILDWOOD MARKET", "naics_code": 445131.0, "naics_desc": "CONVENIENCE RETAILERS ", "lon": -122.38995912329464, "lat": 47.52105502442258 }, "geometry": { "type": "Point", "coordinates": [ -122.389959123294645, 47.52105502442258 ] } },
{ "type": "Feature", "properties": { "name": "FLAIR TACO LLC", "naics_code": 722330.0, "naics_desc": "MOBILE FOOD SERVICES", "lon": -122.35490801903084, "lat": 47.65178935073029 }, "geometry": { "type": "Point", "coordinates": [ -122.354908019030844, 47.65178935073029 ] } },
{ "type": "Feature", "properties": { "name": "DHM RESEARCH", "naics_code": 541910.0, "naics_desc": "MARKETING RESEARCH AND PUBLIC OPINION POLLING", "lon": -122.33459114082484, "lat": 47.60106730140452 }, "geometry": { "type": "Point", "coordinates": [ -122.334591140824841, 47.60106730140452 ] } },
{ "type": "Feature", "properties": { "name": "MORRISON MANAGEMENT SPECIALISTS 44148", "naics_code": 722310.0, "naics_desc": "FOOD SERVICE CONTRACTORS", "lon": -122.32775444785214, "lat": 47.60986419541932 }, "geometry": { "type": "Point", "coordinates": [ -122.327754447852143, 47.60986419541932 ] } },
{ "type": "Feature", "properties": { "name": "MULTISERVICIOS DELIA LLC", "naics_code": 445110.0, "naics_desc": "SUPERMARKETS AND OTHER GROCERY RETAILERS (EXCEPT CONVENIENCE RETAILERS) ", "lon": -122.35344581681741, "lat": 47.514283415159369 }, "geometry": { "type": "Point", "coordinates": [ -122.353445816817413, 47.514283415159369 ] } },
{ "type": "Feature", "properties": { "name": "VIETXPRESS", "naics_code": 492110.0, "naics_desc": "COURIERS AND EXPRESS DELIVERY SERVICES", "lon": -122.31673585777095, "lat": 47.600255027954297 }, "geometry": { "type": "Point", "coordinates": [ -122.316735857770951, 47.600255027954297 ] } },
{ "type": "Feature", "properties": { "name": "VITAL NUTRITIONALS", "naics_code": 456191.0, "naics_desc": "FOOD (HEALTH) SUPPLEMENT RETAILERS ", "lon": -122.34775479019301, "lat": 47.656322395510088 }, "geometry": { "type": "Point", "coordinates": [ -122.347754790193008, 47.656322395510088 ] } },
{ "type": "Feature", "properties": { "name": "BEST OF THE BEST MINI MART", "naics_code": 445131.0, "naics_desc": "CONVENIENCE RETAILERS ", "lon": -122.27621675408044, "lat": 47.523532329347319 }, "geometry": { "type": "Point", "coordinates": [ -122.276216754080437, 47.523532329347319 ] } },
{ "type": "Feature", "properties": { "name": "SNAGGLETOOTH MARKETING", "naics_code": 541613.0, "naics_desc": "MARKETING CONSULTING SERVICES ", "lon": -122.38512159288467, "lat": 47.532694937611716 }, "geometry": { "type": "Point", "coordinates": [ -122.385121592884673, 47.532694937611716 ] } },
{ "type": "Feature", "properties": { "name": "SNOUT & CO", "naics_code": 722330.0, "naics_desc": "MOBILE FOOD SERVICES", "lon": -122.41289578035041, "lat": 47.652315127982007 }, "geometry": { "type": "Point", "coordinates": [ -122.412895780350411, 47.652315127982007 ] } },
{ "type": "Feature", "properties": { "name": "SODEXO  BOEING ESC SEATTLE FIELD BLDG", "naics_code": 722310.0, "naics_desc": "FOOD SERVICE CONTRACTORS", "lon": -122.31223975581692, "lat": 47.531972515345274 }, "geometry": { "type": "Point", "coordinates": [ -122.312239755816918, 47.531972515345274 ] } },
{ "type": "Feature", "properties": { "name": "SOLOMON SOLUTION", "naics_code": 541613.0, "naics_desc": "MARKETING CONSULTING SERVICES ", "lon": -122.31599711299688, "lat": 47.675603146186653 }, "geometry": { "type": "Point", "coordinates": [ -122.315997112996882, 47.675603146186653 ] } },
{ "type": "Feature", "properties": { "name": "DUMP TRUCK", "naics_code": 722330.0, "naics_desc": "MOBILE FOOD SERVICES", "lon": -122.38653012065794, "lat": 47.668010515794215 }, "geometry": { "type": "Point", "coordinates": [ -122.386530120657937, 47.668010515794215 ] } },
{ "type": "Feature", "properties": { "name": "PLEXIM INC", "naics_code": 541613.0, "naics_desc": "MARKETING CONSULTING SERVICES ", "lon": -122.38980948282843, "lat": 47.560415520303486 }, "geometry": { "type": "Point", "coordinates": [ -122.389809482828426, 47.560415520303486 ] } },
{ "type": "Feature", "properties": { "name": "SKY MART SHELL", "naics_code": 457110.0, "naics_desc": "GASOLINE STATIONS WITH CONVENIENCE STORES ", "lon": -122.31991244221835, "lat": 47.538808677238471 }, "geometry": { "type": "Point", "coordinates": [ -122.319912442218353, 47.538808677238471 ] } },
{ "type": "Feature", "properties": { "name": "7 ELEVEN 37755A", "naics_code": 445131.0, "naics_desc": "CONVENIENCE RETAILERS ", "lon": -122.3160991551118, "lat": 47.662816339610565 }, "geometry": { "type": "Point", "coordinates": [ -122.3160991551118, 47.662816339610565 ] } },
{ "type": "Feature", "properties": { "name": "BYPR", "naics_code": 541613.0, "naics_desc": "MARKETING CONSULTING SERVICES ", "lon": -122.38349422865663, "lat": 47.543830865605557 }, "geometry": { "type": "Point", "coordinates": [ -122.38349422865663, 47.543830865605557 ] } },
{ "type": "Feature", "properties": { "name": "GEORGETOWN SHELL", "naics_code": 457110.0, "naics_desc": "GASOLINE STATIONS WITH CONVENIENCE STORES ", "lon": -122.32110692310347, "lat": 47.54712624762162 }, "geometry": { "type": "Point", "coordinates": [ -122.321106923103471, 47.54712624762162 ] } },
{ "type": "Feature", "properties": { "name": "BABA SAJ", "naics_code": 722330.0, "naics_desc": "MOBILE FOOD SERVICES", "lon": -122.31768081564631, "lat": 47.614436682451355 }, "geometry": { "type": "Point", "coordinates": [ -122.317680815646312, 47.614436682451355 ] } },
{ "type": "Feature", "properties": { "name": "BACK 40 MARKETING LLC", "naics_code": 541613.0, "naics_desc": "MARKETING CONSULTING SERVICES ", "lon": -122.26674274835568, "lat": 47.685010815118105 }, "geometry": { "type": "Point", "coordinates": [ -122.266742748355682, 47.685010815118105 ] } },
{ "type": "Feature", "properties": { "name": "TURMERIC DOOR", "naics_code": 722310.0, "naics_desc": "FOOD SERVICE CONTRACTORS", "lon": -122.30301384628976, "lat": 47.691008558624318 }, "geometry": { "type": "Point", "coordinates": [ -122.303013846289758, 47.691008558624318 ] } },
{ "type": "Feature", "properties": { "name": "T MCCORMICK COMMUNICATIONS", "naics_code": 541613.0, "naics_desc": "MARKETING CONSULTING SERVICES ", "lon": -122.39909921341116, "lat": 47.67109334141103 }, "geometry": { "type": "Point", "coordinates": [ -122.399099213411162, 47.67109334141103 ] } },
{ "type": "Feature", "properties": { "name": "SAMMICH", "naics_code": 722330.0, "naics_desc": "MOBILE FOOD SERVICES", "lon": -122.31379857251582, "lat": 47.685095202115676 }, "geometry": { "type": "Point", "coordinates": [ -122.313798572515822, 47.685095202115676 ] } },
{ "type": "Feature", "properties": { "name": "HIGHLAND PARK CORNER STORE", "naics_code": 445131.0, "naics_desc": "CONVENIENCE RETAILERS ", "lon": -122.34711115888453, "lat": 47.532127148401564 }, "geometry": { "type": "Point", "coordinates": [ -122.34711115888453, 47.532127148401564 ] } },
{ "type": "Feature", "properties": { "name": "DANI CORTES MARKETING", "naics_code": 541613.0, "naics_desc": "MARKETING CONSULTING SERVICES ", "lon": -122.31215628648314, "lat": 47.71536337520552 }, "geometry": { "type": "Point", "coordinates": [ -122.312156286483145, 47.71536337520552 ] } },
{ "type": "Feature", "properties": { "name": "LOXICHA", "naics_code": 722330.0, "naics_desc": "MOBILE FOOD SERVICES", "lon": -122.29700459986978, "lat": 47.715370736871222 }, "geometry": { "type": "Point", "coordinates": [ -122.29700459986978, 47.715370736871222 ] } },
{ "type": "Feature", "properties": { "name": "COUNTERSTEER CONSULTING INC", "naics_code": 541613.0, "naics_desc": "MARKETING CONSULTING SERVICES ", "lon": -122.39759656051791, "lat": 47.578947488985023 }, "geometry": { "type": "Point", "coordinates": [ -122.397596560517911, 47.578947488985023 ] } },
{ "type": "Feature", "properties": { "name": "COUPANG GLOBAL LLC", "naics_code": 541613.0, "naics_desc": "MARKETING CONSULTING SERVICES ", "lon": -122.33486788683773, "lat": 47.614184633494681 }, "geometry": { "type": "Point", "coordinates": [ -122.334867886837728, 47.614184633494681 ] } },
{ "type": "Feature", "properties": { "name": "COURIERXPRESS", "naics_code": 492110.0, "naics_desc": "COURIERS AND EXPRESS DELIVERY SERVICES", "lon": -122.33520669085533, "lat": 47.598673283202515 }, "geometry": { "type": "Point", "coordinates": [ -122.33520669085533, 47.598673283202515 ] } },
{ "type": "Feature", "properties": { "name": "THE CAKERY LLC", "naics_code": 722330.0, "naics_desc": "MOBILE FOOD SERVICES", "lon": -122.26402219006354, "lat": 47.677578147078954 }, "geometry": { "type": "Point", "coordinates": [ -122.264022190063542, 47.677578147078954 ] } },
{ "type": "Feature", "properties": { "name": "THE CREAMY CROW", "naics_code": 722330.0, "naics_desc": "MOBILE FOOD SERVICES", "lon": -122.39428416654253, "lat": 47.680453816662123 }, "geometry": { "type": "Point", "coordinates": [ -122.394284166542533, 47.680453816662123 ] } },
{ "type": "Feature", "properties": { "name": "BYORCA", "naics_code": 541613.0, "naics_desc": "MARKETING CONSULTING SERVICES ", "lon": -122.30698284097222, "lat": 47.549042634610323 }, "geometry": { "type": "Point", "coordinates": [ -122.306982840972225, 47.549042634610323 ] } },
{ "type": "Feature", "properties": { "name": "SPEED E MART", "naics_code": 445110.0, "naics_desc": "SUPERMARKETS AND OTHER GROCERY RETAILERS (EXCEPT CONVENIENCE RETAILERS) ", "lon": -122.26923295818192, "lat": 47.516238122534574 }, "geometry": { "type": "Point", "coordinates": [ -122.269232958181917, 47.516238122534574 ] } },
{ "type": "Feature", "properties": { "name": "UNCREATIVE AGENCY LLC", "naics_code": 541613.0, "naics_desc": "MARKETING CONSULTING SERVICES ", "lon": -122.35597898979221, "lat": 47.625634170693964 }, "geometry": { "type": "Point", "coordinates": [ -122.355978989792206, 47.625634170693964 ] } },
{ "type": "Feature", "properties": { "name": "UNSHAKABLE MARKETING GROUP LLC", "naics_code": 541613.0, "naics_desc": "MARKETING CONSULTING SERVICES ", "lon": -122.29534303008747, "lat": 47.597320969982079 }, "geometry": { "type": "Point", "coordinates": [ -122.295343030087466, 47.597320969982079 ] } },
{ "type": "Feature", "properties": { "name": "NORTHGATE CHEVRON", "naics_code": 457110.0, "naics_desc": "GASOLINE STATIONS WITH CONVENIENCE STORES ", "lon": -122.33181136445229, "lat": 47.708861317933135 }, "geometry": { "type": "Point", "coordinates": [ -122.331811364452292, 47.708861317933135 ] } },
{ "type": "Feature", "properties": { "name": "ZEAVY GAS STATION", "naics_code": 457110.0, "naics_desc": "GASOLINE STATIONS WITH CONVENIENCE STORES ", "lon": -122.30035930648526, "lat": 47.666684553016601 }, "geometry": { "type": "Point", "coordinates": [ -122.300359306485262, 47.666684553016601 ] } },
{ "type": "Feature", "properties": { "name": "O HARA CORPORATION MARKETING DIVISION", "naics_code": 541910.0, "naics_desc": "MARKETING RESEARCH AND PUBLIC OPINION POLLING", "lon": -122.3710790762219, "lat": 47.660218843047346 }, "geometry": { "type": "Point", "coordinates": [ -122.371079076221903, 47.660218843047346 ] } },
{ "type": "Feature", "properties": { "name": "NONWHITEWORKS", "naics_code": 541613.0, "naics_desc": "MARKETING CONSULTING SERVICES ", "lon": -122.37640451860264, "lat": 47.521555956584621 }, "geometry": { "type": "Point", "coordinates": [ -122.376404518602641, 47.521555956584621 ] } },
{ "type": "Feature", "properties": { "name": "SAFEWAY STORE  423", "naics_code": 445110.0, "naics_desc": "SUPERMARKETS AND OTHER GROCERY RETAILERS (EXCEPT CONVENIENCE RETAILERS) ", "lon": -122.28943135645598, "lat": 47.682648355528471 }, "geometry": { "type": "Point", "coordinates": [ -122.289431356455978, 47.682648355528471 ] } },
{ "type": "Feature", "properties": { "name": "SAFEWAY STORE  1965", "naics_code": 445110.0, "naics_desc": "SUPERMARKETS AND OTHER GROCERY RETAILERS (EXCEPT CONVENIENCE RETAILERS) ", "lon": -122.26826207248186, "lat": 47.520952647115756 }, "geometry": { "type": "Point", "coordinates": [ -122.268262072481861, 47.520952647115756 ] } },
{ "type": "Feature", "properties": { "name": "EL NARANJO LLC", "naics_code": 722330.0, "naics_desc": "MOBILE FOOD SERVICES", "lon": -122.34401107016029, "lat": 47.681787202455418 }, "geometry": { "type": "Point", "coordinates": [ -122.344011070160292, 47.681787202455418 ] } },
{ "type": "Feature", "properties": { "name": "EL SABOR KATRACHO HONDURAS RESTAURANT", "naics_code": 445298.0, "naics_desc": "ALL OTHER SPECIALTY FOOD RETAILERS ", "lon": -122.27786223014519, "lat": 47.55099897651143 }, "geometry": { "type": "Point", "coordinates": [ -122.277862230145189, 47.55099897651143 ] } },
{ "type": "Feature", "properties": { "name": "LAZAR MARKETING GROUP", "naics_code": 541613.0, "naics_desc": "MARKETING CONSULTING SERVICES ", "lon": -122.4041996709411, "lat": 47.566199744888657 }, "geometry": { "type": "Point", "coordinates": [ -122.404199670941097, 47.566199744888657 ] } },
{ "type": "Feature", "properties": { "name": "HALMIA FISH CO", "naics_code": 445240.0, "naics_desc": "MEAT RETAILERS ", "lon": -122.2986666745048, "lat": 47.706508051862265 }, "geometry": { "type": "Point", "coordinates": [ -122.298666674504801, 47.706508051862265 ] } },
{ "type": "Feature", "properties": { "name": "BBZ LLC", "naics_code": 541613.0, "naics_desc": "MARKETING CONSULTING SERVICES ", "lon": -122.3079285803807, "lat": 47.674541716326871 }, "geometry": { "type": "Point", "coordinates": [ -122.307928580380704, 47.674541716326871 ] } },
{ "type": "Feature", "properties": { "name": "MC FOODS", "naics_code": 457110.0, "naics_desc": "GASOLINE STATIONS WITH CONVENIENCE STORES ", "lon": -122.3040732797628, "lat": 47.559835066847548 }, "geometry": { "type": "Point", "coordinates": [ -122.304073279762804, 47.559835066847548 ] } },
{ "type": "Feature", "properties": { "name": "BROWN GIRL CHARCUTERIE", "naics_code": 722310.0, "naics_desc": "FOOD SERVICE CONTRACTORS", "lon": -122.37792539534837, "lat": 47.561768815709762 }, "geometry": { "type": "Point", "coordinates": [ -122.37792539534837, 47.561768815709762 ] } },
{ "type": "Feature", "properties": { "name": "SPENCER'S VENDING SOLTUIONS LLC", "naics_code": 445132.0, "naics_desc": "VENDING MACHINE OPERATORS ", "lon": -122.29608004334139, "lat": 47.665080605562473 }, "geometry": { "type": "Point", "coordinates": [ -122.296080043341391, 47.665080605562473 ] } },
{ "type": "Feature", "properties": { "name": "SQUIRRELFISH LLC", "naics_code": 541613.0, "naics_desc": "MARKETING CONSULTING SERVICES ", "lon": -122.27574653994191, "lat": 47.683723389693633 }, "geometry": { "type": "Point", "coordinates": [ -122.275746539941906, 47.683723389693633 ] } },
{ "type": "Feature", "properties": { "name": "STARBUCKS COFFEE  19475", "naics_code": 445298.0, "naics_desc": "ALL OTHER SPECIALTY FOOD RETAILERS ", "lon": -122.34499418798852, "lat": 47.689392419081628 }, "geometry": { "type": "Point", "coordinates": [ -122.344994187988519, 47.689392419081628 ] } },
{ "type": "Feature", "properties": { "name": "SCRATCHWORK CREATIVE LLC", "naics_code": 541613.0, "naics_desc": "MARKETING CONSULTING SERVICES ", "lon": -122.25855275973643, "lat": 47.51604319051475 }, "geometry": { "type": "Point", "coordinates": [ -122.258552759736432, 47.51604319051475 ] } },
{ "type": "Feature", "properties": { "name": "WATSON GRAPHICS", "naics_code": 424460.0, "naics_desc": "FISH AND SEAFOOD MERCHANT WHOLESALERS ", "lon": -122.35888160657994, "lat": 47.657668074781164 }, "geometry": { "type": "Point", "coordinates": [ -122.358881606579942, 47.657668074781164 ] } },
{ "type": "Feature", "properties": { "name": "WEDGEWOOD CHEVRON", "naics_code": 457110.0, "naics_desc": "GASOLINE STATIONS WITH CONVENIENCE STORES ", "lon": -122.29019650933961, "lat": 47.681519925394028 }, "geometry": { "type": "Point", "coordinates": [ -122.290196509339609, 47.681519925394028 ] } },
{ "type": "Feature", "properties": { "name": "7 ELEVEN 38365A", "naics_code": 445131.0, "naics_desc": "CONVENIENCE RETAILERS ", "lon": -122.31267173769648, "lat": 47.663218422634579 }, "geometry": { "type": "Point", "coordinates": [ -122.312671737696476, 47.663218422634579 ] } },
{ "type": "Feature", "properties": { "name": "ACQUAINTANCE COFFEE", "naics_code": 722330.0, "naics_desc": "MOBILE FOOD SERVICES", "lon": -122.32445090026451, "lat": 47.606293183372365 }, "geometry": { "type": "Point", "coordinates": [ -122.324450900264509, 47.606293183372365 ] } },
{ "type": "Feature", "properties": { "name": "AD AUDACIAM", "naics_code": 541613.0, "naics_desc": "MARKETING CONSULTING SERVICES ", "lon": -122.2959747860713, "lat": 47.608633522669905 }, "geometry": { "type": "Point", "coordinates": [ -122.295974786071298, 47.608633522669905 ] } },
{ "type": "Feature", "properties": { "name": "HABESHA MARKET", "naics_code": 445131.0, "naics_desc": "CONVENIENCE RETAILERS ", "lon": -122.27628420992518, "lat": 47.545892927857466 }, "geometry": { "type": "Point", "coordinates": [ -122.27628420992518, 47.545892927857466 ] } },
{ "type": "Feature", "properties": { "name": "AEON TRADES LLC", "naics_code": 445230.0, "naics_desc": "FRUIT AND VEGETABLE RETAILERS ", "lon": -122.32565650536085, "lat": 47.638970464017369 }, "geometry": { "type": "Point", "coordinates": [ -122.325656505360854, 47.638970464017369 ] } },
{ "type": "Feature", "properties": { "name": "CARTWRIGHT PROJECTS LLC", "naics_code": 541613.0, "naics_desc": "MARKETING CONSULTING SERVICES ", "lon": -122.27454003976855, "lat": 47.68670041245602 }, "geometry": { "type": "Point", "coordinates": [ -122.274540039768553, 47.68670041245602 ] } },
{ "type": "Feature", "properties": { "name": "KATE WALLING STRATEGY", "naics_code": 541613.0, "naics_desc": "MARKETING CONSULTING SERVICES ", "lon": -122.38188081608209, "lat": 47.560151235300353 }, "geometry": { "type": "Point", "coordinates": [ -122.381880816082088, 47.560151235300353 ] } },
{ "type": "Feature", "properties": { "name": "BAM! SOCIAL TONICS", "naics_code": 456191.0, "naics_desc": "FOOD (HEALTH) SUPPLEMENT RETAILERS ", "lon": -122.37377268770628, "lat": 47.678798708778331 }, "geometry": { "type": "Point", "coordinates": [ -122.373772687706278, 47.678798708778331 ] } },
{ "type": "Feature", "properties": { "name": "LINCOLN FOOD MART", "naics_code": 445110.0, "naics_desc": "SUPERMARKETS AND OTHER GROCERY RETAILERS (EXCEPT CONVENIENCE RETAILERS) ", "lon": -122.39252360942837, "lat": 47.536614026544633 }, "geometry": { "type": "Point", "coordinates": [ -122.392523609428366, 47.536614026544633 ] } },
{ "type": "Feature", "properties": { "name": "WOOD SHOP BBQ", "naics_code": 722330.0, "naics_desc": "MOBILE FOOD SERVICES", "lon": -122.29922701156256, "lat": 47.599136403632116 }, "geometry": { "type": "Point", "coordinates": [ -122.299227011562564, 47.599136403632116 ] } },
{ "type": "Feature", "properties": { "name": "WRIGHT ROBBINS MARKETING & MEDIA SVCS", "naics_code": 541613.0, "naics_desc": "MARKETING CONSULTING SERVICES ", "lon": -122.27399489418968, "lat": 47.671425563655447 }, "geometry": { "type": "Point", "coordinates": [ -122.273994894189684, 47.671425563655447 ] } },
{ "type": "Feature", "properties": { "name": "HOT SPOT MINI MART", "naics_code": 445110.0, "naics_desc": "SUPERMARKETS AND OTHER GROCERY RETAILERS (EXCEPT CONVENIENCE RETAILERS) ", "lon": -122.32510946057755, "lat": 47.678233875389495 }, "geometry": { "type": "Point", "coordinates": [ -122.325109460577551, 47.678233875389495 ] } },
{ "type": "Feature", "properties": { "name": "GNC HOLDINGS LLC", "naics_code": 456191.0, "naics_desc": "FOOD (HEALTH) SUPPLEMENT RETAILERS ", "lon": -122.36628439398481, "lat": 47.522544601023895 }, "geometry": { "type": "Point", "coordinates": [ -122.366284393984813, 47.522544601023895 ] } },
{ "type": "Feature", "properties": { "name": "GUY GOLLIVER", "naics_code": 541613.0, "naics_desc": "MARKETING CONSULTING SERVICES ", "lon": -122.34991117510484, "lat": 47.711704796963346 }, "geometry": { "type": "Point", "coordinates": [ -122.349911175104836, 47.711704796963346 ] } },
{ "type": "Feature", "properties": { "name": "ROOTED JERKY LLC", "naics_code": 311423.0, "naics_desc": "DRIED AND DEHYDRATED FOOD MANUFACTURING ", "lon": -122.29061743825328, "lat": 47.584997264897083 }, "geometry": { "type": "Point", "coordinates": [ -122.290617438253278, 47.584997264897083 ] } },
{ "type": "Feature", "properties": { "name": "ROSS PARK CONVENIENCE STORE", "naics_code": 445131.0, "naics_desc": "CONVENIENCE RETAILERS ", "lon": -122.36060369682239, "lat": 47.660398772712853 }, "geometry": { "type": "Point", "coordinates": [ -122.360603696822395, 47.660398772712853 ] } },
{ "type": "Feature", "properties": { "name": "BON APPETIT  UBER SEATTLE", "naics_code": 722310.0, "naics_desc": "FOOD SERVICE CONTRACTORS", "lon": -122.3367536688272, "lat": 47.60614295928842 }, "geometry": { "type": "Point", "coordinates": [ -122.3367536688272, 47.60614295928842 ] } },
{ "type": "Feature", "properties": { "name": "BONHOMIE COFFEE BAR", "naics_code": 722330.0, "naics_desc": "MOBILE FOOD SERVICES", "lon": -122.35155304067607, "lat": 47.616729648524831 }, "geometry": { "type": "Point", "coordinates": [ -122.351553040676066, 47.616729648524831 ] } },
{ "type": "Feature", "properties": { "name": "PBAND LLC", "naics_code": 541613.0, "naics_desc": "MARKETING CONSULTING SERVICES ", "lon": -122.33370239895976, "lat": 47.597314385799407 }, "geometry": { "type": "Point", "coordinates": [ -122.333702398959758, 47.597314385799407 ] } },
{ "type": "Feature", "properties": { "name": "WEST COAST SEATTLE BOY", "naics_code": 722330.0, "naics_desc": "MOBILE FOOD SERVICES", "lon": -122.34502061255471, "lat": 47.462519478159287 }, "geometry": { "type": "Point", "coordinates": [ -122.345020612554706, 47.462519478159287 ] } },
{ "type": "Feature", "properties": { "name": "HIGH COUNCIL", "naics_code": 541613.0, "naics_desc": "MARKETING CONSULTING SERVICES ", "lon": -122.26605357999641, "lat": 47.55389488475101 }, "geometry": { "type": "Point", "coordinates": [ -122.266053579996409, 47.55389488475101 ] } },
{ "type": "Feature", "properties": { "name": "BELLTOWN MARKET", "naics_code": 445131.0, "naics_desc": "CONVENIENCE RETAILERS ", "lon": -122.34795016636984, "lat": 47.614680880847814 }, "geometry": { "type": "Point", "coordinates": [ -122.347950166369841, 47.614680880847814 ] } },
{ "type": "Feature", "properties": { "name": "SUMMIT FOODS", "naics_code": 445131.0, "naics_desc": "CONVENIENCE RETAILERS ", "lon": -122.32496114092679, "lat": 47.624125744207646 }, "geometry": { "type": "Point", "coordinates": [ -122.324961140926789, 47.624125744207646 ] } },
{ "type": "Feature", "properties": { "name": "EVERGREEN METRICS", "naics_code": 541613.0, "naics_desc": "MARKETING CONSULTING SERVICES ", "lon": -122.32531223980874, "lat": 47.614265404110938 }, "geometry": { "type": "Point", "coordinates": [ -122.325312239808738, 47.614265404110938 ] } },
{ "type": "Feature", "properties": { "name": "INNOVATIVE SUGARWORKS", "naics_code": 333241.0, "naics_desc": "FOOD PRODUCT MACHINERY MANUFACTURING ", "lon": -122.34818820831092, "lat": 47.612856971165662 }, "geometry": { "type": "Point", "coordinates": [ -122.348188208310916, 47.612856971165662 ] } },
{ "type": "Feature", "properties": { "name": "PIKE PLACE TENZING MOMO INC", "naics_code": 445298.0, "naics_desc": "ALL OTHER SPECIALTY FOOD RETAILERS ", "lon": -122.34018641786099, "lat": 47.608500922290062 }, "geometry": { "type": "Point", "coordinates": [ -122.340186417860991, 47.608500922290062 ] } },
{ "type": "Feature", "properties": { "name": "THE NPC GUILD", "naics_code": 541613.0, "naics_desc": "MARKETING CONSULTING SERVICES ", "lon": -122.32548782227768, "lat": 47.690654210776039 }, "geometry": { "type": "Point", "coordinates": [ -122.32548782227768, 47.690654210776039 ] } },
{ "type": "Feature", "properties": { "name": "SHOREHOUSE COFFEE & SHAVE ICE", "naics_code": 722330.0, "naics_desc": "MOBILE FOOD SERVICES", "lon": -122.40613774642082, "lat": 47.674541378714558 }, "geometry": { "type": "Point", "coordinates": [ -122.406137746420825, 47.674541378714558 ] } },
{ "type": "Feature", "properties": { "name": "THE SNACK SHOP", "naics_code": 722330.0, "naics_desc": "MOBILE FOOD SERVICES", "lon": -122.2622133216141, "lat": 47.500571238212039 }, "geometry": { "type": "Point", "coordinates": [ -122.262213321614098, 47.500571238212039 ] } },
{ "type": "Feature", "properties": { "name": "MAKE GOOD MONEY GO", "naics_code": 445132.0, "naics_desc": "VENDING MACHINE OPERATORS ", "lon": -122.37827662476964, "lat": 47.669837905155951 }, "geometry": { "type": "Point", "coordinates": [ -122.37827662476964, 47.669837905155951 ] } },
{ "type": "Feature", "properties": { "name": "CHIO SAECHAO & NAOMI SAECHAO", "naics_code": 722330.0, "naics_desc": "MOBILE FOOD SERVICES", "lon": -122.25529206120551, "lat": 47.505627704673813 }, "geometry": { "type": "Point", "coordinates": [ -122.255292061205509, 47.505627704673813 ] } },
{ "type": "Feature", "properties": { "name": "MIDNITE MART", "naics_code": 445131.0, "naics_desc": "CONVENIENCE RETAILERS ", "lon": -122.38945396626754, "lat": 47.657866031715784 }, "geometry": { "type": "Point", "coordinates": [ -122.389453966267538, 47.657866031715784 ] } },
{ "type": "Feature", "properties": { "name": "DEALIN INC", "naics_code": 457110.0, "naics_desc": "GASOLINE STATIONS WITH CONVENIENCE STORES ", "lon": -122.34973962609052, "lat": 47.61880029065923 }, "geometry": { "type": "Point", "coordinates": [ -122.349739626090525, 47.61880029065923 ] } },
{ "type": "Feature", "properties": { "name": "DELRIDGE GROCERY COOPERATIVE", "naics_code": 445110.0, "naics_desc": "SUPERMARKETS AND OTHER GROCERY RETAILERS (EXCEPT CONVENIENCE RETAILERS) ", "lon": -122.36267510022682, "lat": 47.552386635632182 }, "geometry": { "type": "Point", "coordinates": [ -122.362675100226824, 47.552386635632182 ] } },
{ "type": "Feature", "properties": { "name": "GO NARRATIVE", "naics_code": 541613.0, "naics_desc": "MARKETING CONSULTING SERVICES ", "lon": -122.39714473481757, "lat": 47.55960517716214 }, "geometry": { "type": "Point", "coordinates": [ -122.397144734817573, 47.55960517716214 ] } },
{ "type": "Feature", "properties": { "name": "DEVELOPMENT SERVICES OF AMERICA INC", "naics_code": 445110.0, "naics_desc": "SUPERMARKETS AND OTHER GROCERY RETAILERS (EXCEPT CONVENIENCE RETAILERS) ", "lon": -122.36420898150988, "lat": 47.56787727955647 }, "geometry": { "type": "Point", "coordinates": [ -122.364208981509876, 47.56787727955647 ] } },
{ "type": "Feature", "properties": { "name": "SUPER DONKEY TACOS", "naics_code": 722330.0, "naics_desc": "MOBILE FOOD SERVICES", "lon": -122.36273870337452, "lat": 47.551675231483443 }, "geometry": { "type": "Point", "coordinates": [ -122.362738703374518, 47.551675231483443 ] } },
{ "type": "Feature", "properties": { "name": "CHILIS SOUTH INDIAN CUISINE", "naics_code": 445110.0, "naics_desc": "SUPERMARKETS AND OTHER GROCERY RETAILERS (EXCEPT CONVENIENCE RETAILERS) ", "lon": -122.31302394777376, "lat": 47.658991799011773 }, "geometry": { "type": "Point", "coordinates": [ -122.313023947773758, 47.658991799011773 ] } },
{ "type": "Feature", "properties": { "name": "LET'S LAUNCH", "naics_code": 541613.0, "naics_desc": "MARKETING CONSULTING SERVICES ", "lon": -122.30161464651593, "lat": 47.621214548539207 }, "geometry": { "type": "Point", "coordinates": [ -122.30161464651593, 47.621214548539207 ] } },
{ "type": "Feature", "properties": { "name": "SKYPUPS PET TREATS", "naics_code": 445298.0, "naics_desc": "ALL OTHER SPECIALTY FOOD RETAILERS ", "lon": -122.31471068640057, "lat": 47.700535356059461 }, "geometry": { "type": "Point", "coordinates": [ -122.314710686400574, 47.700535356059461 ] } },
{ "type": "Feature", "properties": { "name": "KINKEE BITES LLC", "naics_code": 722330.0, "naics_desc": "MOBILE FOOD SERVICES", "lon": -122.31398777720626, "lat": 47.558106378325441 }, "geometry": { "type": "Point", "coordinates": [ -122.313987777206265, 47.558106378325441 ] } },
{ "type": "Feature", "properties": { "name": "KINNEAR PLACE STRATEGIES", "naics_code": 541613.0, "naics_desc": "MARKETING CONSULTING SERVICES ", "lon": -122.37793966698024, "lat": 47.531037207613146 }, "geometry": { "type": "Point", "coordinates": [ -122.37793966698024, 47.531037207613146 ] } },
{ "type": "Feature", "properties": { "name": "SALSA TACOS", "naics_code": 722330.0, "naics_desc": "MOBILE FOOD SERVICES", "lon": -122.37620992069716, "lat": 47.523073521655327 }, "geometry": { "type": "Point", "coordinates": [ -122.376209920697164, 47.523073521655327 ] } },
{ "type": "Feature", "properties": { "name": "SANNHET CONSULTING LLC", "naics_code": 541613.0, "naics_desc": "MARKETING CONSULTING SERVICES ", "lon": -122.37631223668156, "lat": 47.705844232746863 }, "geometry": { "type": "Point", "coordinates": [ -122.376312236681557, 47.705844232746863 ] } },
{ "type": "Feature", "properties": { "name": "SPACE NEEDLE SHELL", "naics_code": 457110.0, "naics_desc": "GASOLINE STATIONS WITH CONVENIENCE STORES ", "lon": -122.34408840520727, "lat": 47.618902157380809 }, "geometry": { "type": "Point", "coordinates": [ -122.344088405207273, 47.618902157380809 ] } },
{ "type": "Feature", "properties": { "name": "SOUP CLUB LLC", "naics_code": 722330.0, "naics_desc": "MOBILE FOOD SERVICES", "lon": -122.35160362219089, "lat": 47.650617606875819 }, "geometry": { "type": "Point", "coordinates": [ -122.351603622190893, 47.650617606875819 ] } },
{ "type": "Feature", "properties": { "name": "BELLTOWN GROCERY", "naics_code": 445131.0, "naics_desc": "CONVENIENCE RETAILERS ", "lon": -122.34448941066084, "lat": 47.614197384044381 }, "geometry": { "type": "Point", "coordinates": [ -122.344489410660842, 47.614197384044381 ] } },
{ "type": "Feature", "properties": { "name": "MONASTERIE", "naics_code": 541613.0, "naics_desc": "MARKETING CONSULTING SERVICES ", "lon": -122.33026876020597, "lat": 47.609544049335582 }, "geometry": { "type": "Point", "coordinates": [ -122.330268760205968, 47.609544049335582 ] } },
{ "type": "Feature", "properties": { "name": "FLYING FISH EXPRESS", "naics_code": 311710.0, "naics_desc": "SEAFOOD PRODUCT PREPARATION AND PACKAGING", "lon": -122.33195274221221, "lat": 47.531416354759472 }, "geometry": { "type": "Point", "coordinates": [ -122.331952742212209, 47.531416354759472 ] } },
{ "type": "Feature", "properties": { "name": "LOKI FISH CO", "naics_code": 424460.0, "naics_desc": "FISH AND SEAFOOD MERCHANT WHOLESALERS ", "lon": -122.39162452096474, "lat": 47.540744514721219 }, "geometry": { "type": "Point", "coordinates": [ -122.39162452096474, 47.540744514721219 ] } },
{ "type": "Feature", "properties": { "name": "GROW TO BRANDS", "naics_code": 541613.0, "naics_desc": "MARKETING CONSULTING SERVICES ", "lon": -122.34400196967371, "lat": 47.664494806354888 }, "geometry": { "type": "Point", "coordinates": [ -122.344001969673712, 47.664494806354888 ] } },
{ "type": "Feature", "properties": { "name": "LOUMPIA", "naics_code": 722330.0, "naics_desc": "MOBILE FOOD SERVICES", "lon": -122.32432739848497, "lat": 47.679318597998972 }, "geometry": { "type": "Point", "coordinates": [ -122.324327398484968, 47.679318597998972 ] } },
{ "type": "Feature", "properties": { "name": "THERE HE IS", "naics_code": 541613.0, "naics_desc": "MARKETING CONSULTING SERVICES ", "lon": -122.29752856324654, "lat": 47.577032224233449 }, "geometry": { "type": "Point", "coordinates": [ -122.297528563246544, 47.577032224233449 ] } },
{ "type": "Feature", "properties": { "name": "TRUE WORLD FOODS SEATTLE LLC", "naics_code": 311412.0, "naics_desc": "FROZEN SPECIALTY FOOD MANUFACTURING ", "lon": -122.31331698851119, "lat": 47.520688747291999 }, "geometry": { "type": "Point", "coordinates": [ -122.31331698851119, 47.520688747291999 ] } },
{ "type": "Feature", "properties": { "name": "TRUTH & DETAILS", "naics_code": 541613.0, "naics_desc": "MARKETING CONSULTING SERVICES ", "lon": -122.38186000729888, "lat": 47.587742909976107 }, "geometry": { "type": "Point", "coordinates": [ -122.381860007298883, 47.587742909976107 ] } },
{ "type": "Feature", "properties": { "name": "TSUNAMI SEAFOOD", "naics_code": 445250.0, "naics_desc": "FISH AND SEAFOOD RETAILERS ", "lon": -122.27170377769673, "lat": 47.566647359624703 }, "geometry": { "type": "Point", "coordinates": [ -122.271703777696729, 47.566647359624703 ] } },
{ "type": "Feature", "properties": { "name": "G&K DISTRIBUTIONS LLC", "naics_code": 424410.0, "naics_desc": "GENERAL LINE GROCERY MERCHANT WHOLESALERS ", "lon": -122.3834000169666, "lat": 47.58956960637461 }, "geometry": { "type": "Point", "coordinates": [ -122.383400016966604, 47.58956960637461 ] } },
{ "type": "Feature", "properties": { "name": "GAPPA INSIGHTS LLC", "naics_code": 541613.0, "naics_desc": "MARKETING CONSULTING SERVICES ", "lon": -122.26962197502372, "lat": 47.555385125538209 }, "geometry": { "type": "Point", "coordinates": [ -122.269621975023725, 47.555385125538209 ] } },
{ "type": "Feature", "properties": { "name": "WHALE EXPRESS MARKET & DELI", "naics_code": 445131.0, "naics_desc": "CONVENIENCE RETAILERS ", "lon": -122.3167953696676, "lat": 47.598862467946944 }, "geometry": { "type": "Point", "coordinates": [ -122.316795369667602, 47.598862467946944 ] } },
{ "type": "Feature", "properties": { "name": "ALKI BBQ", "naics_code": 722330.0, "naics_desc": "MOBILE FOOD SERVICES", "lon": -122.31637987320786, "lat": 47.606428125592195 }, "geometry": { "type": "Point", "coordinates": [ -122.316379873207865, 47.606428125592195 ] } },
{ "type": "Feature", "properties": { "name": "WHITNEY KEYES PRODUCTIONS LLC", "naics_code": 541613.0, "naics_desc": "MARKETING CONSULTING SERVICES ", "lon": -122.31837548603859, "lat": 47.627468257754487 }, "geometry": { "type": "Point", "coordinates": [ -122.31837548603859, 47.627468257754487 ] } },
{ "type": "Feature", "properties": { "name": "WHOLE FOODS MARKET", "naics_code": 445110.0, "naics_desc": "SUPERMARKETS AND OTHER GROCERY RETAILERS (EXCEPT CONVENIENCE RETAILERS) ", "lon": -122.37735640166996, "lat": 47.637181898978469 }, "geometry": { "type": "Point", "coordinates": [ -122.377356401669957, 47.637181898978469 ] } },
{ "type": "Feature", "properties": { "name": "CRUSH DOG", "naics_code": 722330.0, "naics_desc": "MOBILE FOOD SERVICES", "lon": -122.3467176491754, "lat": 47.613848762916177 }, "geometry": { "type": "Point", "coordinates": [ -122.346717649175403, 47.613848762916177 ] } },
{ "type": "Feature", "properties": { "name": "7-ELEVEN #16022G", "naics_code": 445131.0, "naics_desc": "CONVENIENCE RETAILERS ", "lon": -122.35392593953648, "lat": 47.672017374990482 }, "geometry": { "type": "Point", "coordinates": [ -122.353925939536481, 47.672017374990482 ] } },
{ "type": "Feature", "properties": { "name": "BACKYARD BAGELS", "naics_code": 722330.0, "naics_desc": "MOBILE FOOD SERVICES", "lon": -122.34982257731234, "lat": 47.65984073749798 }, "geometry": { "type": "Point", "coordinates": [ -122.349822577312338, 47.65984073749798 ] } },
{ "type": "Feature", "properties": { "name": "SECRET SAUCE CREATIVE LLC", "naics_code": 541613.0, "naics_desc": "MARKETING CONSULTING SERVICES ", "lon": -122.26429977903787, "lat": 47.541491012489047 }, "geometry": { "type": "Point", "coordinates": [ -122.26429977903787, 47.541491012489047 ] } },
{ "type": "Feature", "properties": { "name": "SEMIRA GROCERY", "naics_code": 445110.0, "naics_desc": "SUPERMARKETS AND OTHER GROCERY RETAILERS (EXCEPT CONVENIENCE RETAILERS) ", "lon": -122.29876314508321, "lat": 47.601519848082965 }, "geometry": { "type": "Point", "coordinates": [ -122.298763145083214, 47.601519848082965 ] } },
{ "type": "Feature", "properties": { "name": "SHARK BITE", "naics_code": 722330.0, "naics_desc": "MOBILE FOOD SERVICES", "lon": -122.36049859670183, "lat": 47.675786135742534 }, "geometry": { "type": "Point", "coordinates": [ -122.360498596701831, 47.675786135742534 ] } },
{ "type": "Feature", "properties": { "name": "CBRE HMF", "naics_code": 541910.0, "naics_desc": "MARKETING RESEARCH AND PUBLIC OPINION POLLING", "lon": -122.33467953953617, "lat": 47.610550654366811 }, "geometry": { "type": "Point", "coordinates": [ -122.334679539536168, 47.610550654366811 ] } },
{ "type": "Feature", "properties": { "name": "TACOS LAS DELICIAS", "naics_code": 722330.0, "naics_desc": "MOBILE FOOD SERVICES", "lon": -122.35491458552117, "lat": 47.705251062646603 }, "geometry": { "type": "Point", "coordinates": [ -122.354914585521172, 47.705251062646603 ] } },
{ "type": "Feature", "properties": { "name": "WAINWRIGHT INSIGHT", "naics_code": 541613.0, "naics_desc": "MARKETING CONSULTING SERVICES ", "lon": -122.38387192300173, "lat": 47.570977494830657 },